[{
  "_id": {
    "$oid": "690586c9e06ce80de6cd7240"
  },
  "name": "La Tour de la Dombes",
  "url": "http://www.echecs.asso.fr/FicheClub.aspx?Ref=1171",
  "address": "Mairie 01400 CHATILLON SUR CHALARONNE",
  "email": "echecslatourdeladombes@hotmail.com",
  "website": "http://www.latourdeladombes.com/",
  "coordinates": [
    46.1233634,
    4.9435756
  ]
},
{
  "_id": {
    "$oid": "690586c9e06ce80de6cd7242"
  },
  "name": "Amicale Echecs",
  "url": "http://www.echecs.asso.fr/FicheClub.aspx?Ref=2725",
  "address": "410 avenue des Alpes 74100",
  "email": "opf@lalieu.com",
  "website": "http://amicale-echecs.com",
  "coordinates": [
    46.1829563,
    6.2372305
  ]
},
{
  "_id": {
    "$oid": "690586c9e06ce80de6cd7243"
  },
  "name": "Echiquier Laticinois",
  "url": "http://www.echecs.asso.fr/FicheClub.aspx?Ref=1179",
  "address": "11 a rue de l'Industrie 01150 LAGNIEU",
  "email": "echiquier.latinicois@gmail.com",
  "website": "",
  "coordinates": [
    45.9014708,
    5.346514000000001
  ]
},
{
  "_id": {
    "$oid": "690586c9e06ce80de6cd7253"
  },
  "name": "Tour Noire Huriel",
  "url": "http://www.echecs.asso.fr/FicheClub.aspx?Ref=169",
  "address": "Maison des Associations 7 rue des Vignes 03380 HURIEL",
  "email": "tournoiredhuriel@gmail.com",
  "website": "http://tournoirehuriel.fr/",
  "coordinates": [
    46.3732811,
    2.4784009
  ]
},
{
  "_id": {
    "$oid": "690586c9e06ce80de6cd725b"
  },
  "name": "Grand Roc Briançon",
  "url": "http://www.echecs.asso.fr/FicheClub.aspx?Ref=1538",
  "address": "Ecole du Prorel 9 Av Rene Froger 05100 BRIANCON",
  "email": "atelier05@club-internet.fr",
  "website": "",
  "coordinates": [
    44.8980441,
    6.630742499999999
  ]
},
{
  "_id": {
    "$oid": "690586c9e06ce80de6cd7265"
  },
  "name": "Mougins Chess Club",
  "url": "http://www.echecs.asso.fr/FicheClub.aspx?Ref=2682",
  "address": "Gymnase du Font de l'Orme 50 allee Pierre de Coubertin 06250 MOUGINS",
  "email": "info@mougins-chess-club.fr",
  "website": "http://www.mougins-chess-club.fr/",
  "coordinates": [
    43.6098677,
    7.015575
  ]
},
{
  "_id": {
    "$oid": "690586c9e06ce80de6cd7268"
  },
  "name": "St Laurent du Var Echecs",
  "url": "http://www.echecs.asso.fr/FicheClub.aspx?Ref=1660",
  "address": "Ecole de la Gare Mixte 63 allee Pasteur 06700 ST LAURENT DU VAR",
  "email": "association_saintlaurentduvar_echecs@orange.fr",
  "website": "",
  "coordinates": [
    43.6641805,
    7.192734199999999
  ]
},
{
  "_id": {
    "$oid": "690586c9e06ce80de6cd7269"
  },
  "name": "Club d'Echecs du Bassin d'Annonay",
  "url": "http://www.echecs.asso.fr/FicheClub.aspx?Ref=2816",
  "address": "12 les Hauts de Chamieux 135 avenue Daniel Mercier 07100 ANNONAY",
  "email": "echecs.annonay@gmail.com",
  "website": "https://www.facebook.com/guyfanget07/",
  "coordinates": [
    45.2354473,
    4.6966182
  ]
},
{
  "_id": {
    "$oid": "690586c9e06ce80de6cd726b"
  },
  "name": "Atelier Echecs des Assions",
  "url": "http://www.echecs.asso.fr/FicheClub.aspx?Ref=3269",
  "address": "Mairie le Village 07140 LES ASSIONS",
  "email": "le-deuff.frederic@orange.fr",
  "website": "https://assions-echecs.assoconnect.com/",
  "coordinates": [
    44.421387,
    4.1740449
  ]
},
{
  "_id": {
    "$oid": "690586c9e06ce80de6cd7271"
  },
  "name": "Club d'Echecs de la Francheville T.G.V.",
  "url": "http://www.echecs.asso.fr/FicheClub.aspx?Ref=416",
  "address": "Mairie de la Francheville 08000 LA FRANCHEVILLE",
  "email": "club.lftgv@gmail.com",
  "website": "http://celftgv.toile-libre.org/",
  "coordinates": [
    49.7284887,
    4.7124311
  ]
},
{
  "_id": {
    "$oid": "690586c9e06ce80de6cd7272"
  },
  "name": "Le Palamède - CE de Rethel et du Pays Rethelois",
  "url": "http://www.echecs.asso.fr/FicheClub.aspx?Ref=424",
  "address": "Centre Linard place de l'Octroi 08300 RETHEL",
  "email": "club_echecsrethel@orange.fr",
  "website": "https://www.lepalamederethel.com/",
  "coordinates": [
    49.5128022,
    4.3685664
  ]
},
{
  "_id": {
    "$oid": "690586c9e06ce80de6cd7275"
  },
  "name": "Cercle Echiquéen du Valier",
  "url": "http://www.echecs.asso.fr/FicheClub.aspx?Ref=3209",
  "address": "Rue du Pouech 09140 OUST",
  "email": "club.echecs.couserans@gmail.com",
  "website": "https://www.facebook.com/Cercle-%C3%89chiqu%C3%A9en-du-Valier-102693335617565",
  "coordinates": [
    42.8741368,
    1.2151864
  ]
},
{
  "_id": {
    "$oid": "690586c9e06ce80de6cd7278"
  },
  "name": "La Dame du Sabarthes",
  "url": "http://www.echecs.asso.fr/FicheClub.aspx?Ref=3424",
  "address": "4 Grande Rue val de Sos 09220 VICDESSOS",
  "email": "ladamedusabarthes@gmail.com",
  "website": "https://la-dame-du-sabarthes1.odoo.com/",
  "coordinates": [
    42.76828010000001,
    1.4997659
  ]
},
{
  "_id": {
    "$oid": "690586c9e06ce80de6cd727a"
  },
  "name": "L'Echiquier Aubois",
  "url": "http://www.echecs.asso.fr/FicheClub.aspx?Ref=393",
  "address": "Maison Pour Tous 70 avenue du General Gallieni 10000 STE SAVINE CEDEX",
  "email": "lechiquieraubois@gmail.com",
  "website": "https://echiquier-aubois.jimdosite.com",
  "coordinates": [
    48.2942506,
    4.0557507
  ]
},
{
  "_id": {
    "$oid": "690586c9e06ce80de6cd727b"
  },
  "name": "Verrières Animation Loisirs",
  "url": "http://www.echecs.asso.fr/FicheClub.aspx?Ref=1749",
  "address": "30 rue des Acacias 10390 VERRIERES",
  "email": "chantipi@yahoo.fr",
  "website": "http://verrieres.echecs.free.fr",
  "coordinates": [
    48.2356479,
    4.1541849
  ]
},
{
  "_id": {
    "$oid": "690586c9e06ce80de6cd727c"
  },
  "name": "L' Echiquier Alzonnais",
  "url": "http://www.echecs.asso.fr/FicheClub.aspx?Ref=2817",
  "address": "Chez Mr Turchetto Ludovic 2 rue du Chateau 11170 Alzonne 11170 ALZONNE",
  "email": "turchetto.ludovic@neuf.fr",
  "website": "",
  "coordinates": [
    43.2782754,
    2.1601936
  ]
},
{
  "_id": {
    "$oid": "690586c9e06ce80de6cd727f"
  },
  "name": "Echiquier Carcassonnais",
  "url": "http://www.echecs.asso.fr/FicheClub.aspx?Ref=1017",
  "address": "Chez Mr Maugard Michel 9 rue de la Loubatiere montredon 11000 CARCASSONNE",
  "email": "contact@echiquiercarcassonnais.com",
  "website": "https://echiquiercarcassonnais.com",
  "coordinates": [
    43.2263559,
    2.3857082
  ]
},
{
  "_id": {
    "$oid": "690586c9e06ce80de6cd7282"
  },
  "name": "Echiquier Palmiste",
  "url": "http://www.echecs.asso.fr/FicheClub.aspx?Ref=3034",
  "address": "3 rue des Soeurs 11480 LA PALME",
  "email": "echiquier.palmiste@free.fr",
  "website": "",
  "coordinates": [
    42.9747033,
    2.9927116
  ]
},
{
  "_id": {
    "$oid": "690586c9e06ce80de6cd7284"
  },
  "name": "L'Echiquier Limouxin",
  "url": "http://www.echecs.asso.fr/FicheClub.aspx?Ref=2759",
  "address": "Hotel de Ville 11300 LIMOUX",
  "email": "eric.deljehier@orange.fr",
  "website": "",
  "coordinates": [
    43.0529527,
    2.2180274
  ]
},
{
  "_id": {
    "$oid": "690586c9e06ce80de6cd7288"
  },
  "name": "Les Pions de Naussac",
  "url": "http://www.echecs.asso.fr/FicheClub.aspx?Ref=2997",
  "address": "Mairie le Bourg 12700 NAUSSAC",
  "email": "lespionsdenaussac@laposte.net",
  "website": "",
  "coordinates": [
    44.5622649,
    2.05107
  ]
},
{
  "_id": {
    "$oid": "690586c9e06ce80de6cd728a"
  },
  "name": "St Affrique",
  "url": "http://www.echecs.asso.fr/FicheClub.aspx?Ref=1033",
  "address": "Maison d' Education Populaire rue Frangi et Ortega 12400 ST AFFRIQUE",
  "email": "echecs.saintaffrique@gmail.com",
  "website": "http://echecs-saintaffrique.fr",
  "coordinates": [
    43.9587093,
    2.8828182
  ]
},
{
  "_id": {
    "$oid": "690586c9e06ce80de6cd728c"
  },
  "name": "Hay Chess",
  "url": "http://www.echecs.asso.fr/FicheClub.aspx?Ref=2976",
  "address": "1 Clos du Mas des Oliviers 13190 ALLAUCH",
  "email": "haychess.echecsallauch@gmail.com",
  "website": "http://www.haychess.org",
  "coordinates": [
    43.3475963,
    5.4771911
  ]
},
{
  "_id": {
    "$oid": "690586c9e06ce80de6cd728e"
  },
  "name": "Echiquier Berrois",
  "url": "http://www.echecs.asso.fr/FicheClub.aspx?Ref=3358",
  "address": "Mediatheque E. Defferre 2 rue Lafayette 13130 BERRE L ETANG",
  "email": "echiquierberrois@gmail.com",
  "website": "",
  "coordinates": [
    43.4746384,
    5.1679043
  ]
},
{
  "_id": {
    "$oid": "690586c9e06ce80de6cd7292"
  },
  "name": "Gemenos Chess Club",
  "url": "http://www.echecs.asso.fr/FicheClub.aspx?Ref=3280",
  "address": "601 Chemin du Vallon de La galere 13420 GEMENOS",
  "email": "gemenosclub@gmail.com",
  "website": "https://www.helloasso.com/associations/gemenos-chess-club",
  "coordinates": [
    43.302323,
    5.628416
  ]
},
{
  "_id": {
    "$oid": "690586c9e06ce80de6cd7299"
  },
  "name": "Marseille-Echecs",
  "url": "http://www.echecs.asso.fr/FicheClub.aspx?Ref=1648",
  "address": "7 rue Papety 13007 MARSEILLE",
  "email": "marseillechecs@gmail.com",
  "website": "http://www.marseille-echecs.com/",
  "coordinates": [
    43.2907654,
    5.358478
  ]
},
{
  "_id": {
    "$oid": "690586c9e06ce80de6cd72a3"
  },
  "name": "Caen Alekhine",
  "url": "http://www.echecs.asso.fr/FicheClub.aspx?Ref=184",
  "address": "115 ter Bld du General Vanier 14000 CAEN",
  "email": "clubechecs@caenalekhine.fr",
  "website": "http://www.caenalekhine.fr/",
  "coordinates": [
    49.1963506,
    -0.3507522
  ]
},
{
  "_id": {
    "$oid": "690586c9e06ce80de6cd72a5"
  },
  "name": "Echiquier Volant MJC Intercommunale",
  "url": "http://www.echecs.asso.fr/FicheClub.aspx?Ref=2066",
  "address": "MJC Intercommunale De colleville 5 rue Grande 14880 COLLEVILLE MONTGOMERY",
  "email": "mjcinter.secretariat@gmail.com",
  "website": "",
  "coordinates": [
    49.2762781,
    -0.296901
  ]
},
{
  "_id": {
    "$oid": "690586c9e06ce80de6cd72aa"
  },
  "name": "La Riviere Saint Sauveur",
  "url": "http://www.echecs.asso.fr/FicheClub.aspx?Ref=214",
  "address": "Mairie 1 Chemin du Calvaire 14600 LA RIVIERE ST SAUVEUR",
  "email": "melvyndecaen@gmail.com",
  "website": "",
  "coordinates": [
    49.4087435,
    0.2601581
  ]
},
{
  "_id": {
    "$oid": "690586c9e06ce80de6cd72ad"
  },
  "name": "Echiquier de l'Orbiquet - EDO",
  "url": "http://www.echecs.asso.fr/FicheClub.aspx?Ref=213",
  "address": "Mairie rue des Augustines 14290 ORBEC",
  "email": "karadock@hotmail.fr",
  "website": "",
  "coordinates": [
    49.0218371,
    0.4052633
  ]
},
{
  "_id": {
    "$oid": "690586c9e06ce80de6cd72ae"
  },
  "name": "L'Echiquier de l'Hippocampe",
  "url": "http://www.echecs.asso.fr/FicheClub.aspx?Ref=3333",
  "address": "29 avenue Lamartine 14150 OUISTREHAM",
  "email": "echiquierhippocampe@gmail.com",
  "website": "https://lechiquierdelhippocampe.fr/",
  "coordinates": [
    49.2884931,
    -0.2673357
  ]
},
{
  "_id": {
    "$oid": "690586c9e06ce80de6cd72b0"
  },
  "name": "Club d'Echecs des Volcans",
  "url": "http://www.echecs.asso.fr/FicheClub.aspx?Ref=3338",
  "address": "1 route St Laurent 15100 TIVIERS",
  "email": "echecsdesvolcans@gmail.com",
  "website": "",
  "coordinates": [
    45.060491,
    3.159018
  ]
},
{
  "_id": {
    "$oid": "690586c9e06ce80de6cd72b2"
  },
  "name": "Chasseneuil Animation Loisirs et Culture - CALC",
  "url": "http://www.echecs.asso.fr/FicheClub.aspx?Ref=2955",
  "address": "1 rue Sainte Barbe 16260 CHASSENEUIL SUR BONNIEURE",
  "email": "calc16@laposte.net",
  "website": "",
  "coordinates": [
    45.8263803,
    0.4466474
  ]
},
{
  "_id": {
    "$oid": "690586c9e06ce80de6cd72b3"
  },
  "name": "Club d'Echecs de Cognac",
  "url": "http://www.echecs.asso.fr/FicheClub.aspx?Ref=2768",
  "address": "20 rue St Exupery 16100 COGNAC",
  "email": "echecs.cognac@gmail.com",
  "website": "http://www.echecscognac.sitew.com",
  "coordinates": [
    45.6999296,
    -0.3125801
  ]
},
{
  "_id": {
    "$oid": "690586c9e06ce80de6cd72be"
  },
  "name": "L'Echiquier Vauxois",
  "url": "http://www.echecs.asso.fr/FicheClub.aspx?Ref=3236",
  "address": "Mairie place Maurice Garnier 17640 VAUX SUR MER",
  "email": "echiquiervauxois@gmx.fr",
  "website": "https://sites.google.com/view/echiquiervauxois/accueil",
  "coordinates": [
    45.640178,
    -1.067802
  ]
},
{
  "_id": {
    "$oid": "690586c9e06ce80de6cd72c0"
  },
  "name": "De Plaimpied dans les Echecs",
  "url": "http://www.echecs.asso.fr/FicheClub.aspx?Ref=2028",
  "address": "Mairie de Plaimpied 10 rue Saint Martin 18340 PLAIMPIED GIVAUDINS",
  "email": "",
  "website": "https://clubdechecsdeplaimpied.sitew.fr/",
  "coordinates": [
    46.9979214,
    2.4550819
  ]
},
{
  "_id": {
    "$oid": "690586c9e06ce80de6cd72d3"
  },
  "name": "Cercle d'Echecs Cyrano",
  "url": "http://www.echecs.asso.fr/FicheClub.aspx?Ref=112",
  "address": "Place Jules Ferry maison des Associations 24100 BERGERAC",
  "email": "bernard.arris@wanadoo.fr",
  "website": "https://www.echecsbergerac.fr",
  "coordinates": [
    44.854926,
    0.4846943
  ]
},
{
  "_id": {
    "$oid": "690586c9e06ce80de6cd72d7"
  },
  "name": "Echiquier Salignacois",
  "url": "http://www.echecs.asso.fr/FicheClub.aspx?Ref=2809",
  "address": "Lieu Dit Meuil 24590 SALIGNAC EYVIGUES",
  "email": "mbaminvest@gmail.com",
  "website": "",
  "coordinates": [
    44.958623,
    1.35177
  ]
},
{
  "_id": {
    "$oid": "690586c9e06ce80de6cd72da"
  },
  "name": "Roi Blanc Montbeliard",
  "url": "http://www.echecs.asso.fr/FicheClub.aspx?Ref=580",
  "address": "4 rue des Batteries du Parc 25200 MONTBELIARD",
  "email": "roiblanc@free.fr",
  "website": "http://roiblanc.free.fr/",
  "coordinates": [
    47.518686,
    6.811344
  ]
},
{
  "_id": {
    "$oid": "690586c9e06ce80de6cd72db"
  },
  "name": "Le Pion Tissalien Echecs",
  "url": "http://www.echecs.asso.fr/FicheClub.aspx?Ref=581",
  "address": "Centre Socio-Culturel des Capucins 18 rue de Salins 25300 PONTARLIER",
  "email": "pontarlier.echecs @outlook.com",
  "website": "https://www.pontarlier-echecs.com/",
  "coordinates": [
    46.9066128,
    6.3483955
  ]
},
{
  "_id": {
    "$oid": "690586c9e06ce80de6cd72de"
  },
  "name": "Les Cavaliers du Pontias",
  "url": "http://www.echecs.asso.fr/FicheClub.aspx?Ref=3131",
  "address": "Espace Roumanille 55 place de la Liberation 26110 NYONS",
  "email": "clarysyves@gmail.com",
  "website": "",
  "coordinates": [
    44.3609896,
    5.1397796
  ]
},
{
  "_id": {
    "$oid": "690586c9e06ce80de6cd72e3"
  },
  "name": "Ass Familliale d Evreux Section Echecs Evreux Gambit Club",
  "url": "http://www.echecs.asso.fr/FicheClub.aspx?Ref=1973",
  "address": "23 rue Saint Pierre 27000 EVREUX",
  "email": "x.vappereau@orange.fr",
  "website": "http://www.evreuxgambitclub.ovh/",
  "coordinates": [
    49.0282075,
    1.1499633
  ]
},
{
  "_id": {
    "$oid": "690586c9e06ce80de6cd72ef"
  },
  "name": "L'Echiquier Bleu",
  "url": "http://www.echecs.asso.fr/FicheClub.aspx?Ref=2486",
  "address": "1 rue de Stang Ar Lin beuzec Conq 29900 CONCARNEAU",
  "email": "rene.concarneau@free.fr",
  "website": "https://www.echiquier-bleu.fr/",
  "coordinates": [
    47.888468,
    -3.9018769
  ]
},
{
  "_id": {
    "$oid": "690586c9e06ce80de6cd7300"
  },
  "name": "Corsica Chess Club",
  "url": "http://www.echecs.asso.fr/FicheClub.aspx?Ref=308",
  "address": "2 rue du Commandant l'Herminier 20200 BASTIA",
  "email": "corsicachessclub@gmail.com",
  "website": "https://www.corsicachessclub.com",
  "coordinates": [
    42.7042231,
    9.4526068
  ]
},
{
  "_id": {
    "$oid": "690586c9e06ce80de6cd7310"
  },
  "name": "Echiquier Luchonnais",
  "url": "http://www.echecs.asso.fr/FicheClub.aspx?Ref=1780",
  "address": "Mairie 23 allee d'Etigny 31110 BAGNERES DE LUCHON",
  "email": "j.gales@orange.fr",
  "website": "http://www.echiquier-luchonnais.fr",
  "coordinates": [
    42.7891218,
    0.5926113000000001
  ]
},
{
  "_id": {
    "$oid": "690586c9e06ce80de6cd7311"
  },
  "name": "Blagnac Echecs",
  "url": "http://www.echecs.asso.fr/FicheClub.aspx?Ref=2569",
  "address": "4 Cheminement des Saules 31700 BLAGNAC",
  "email": "blagnac-echecs@echecs-blagnac.org",
  "website": "http://www.echecs-blagnac.org/",
  "coordinates": [
    43.636819,
    1.378467
  ]
},
{
  "_id": {
    "$oid": "690586c9e06ce80de6cd7312"
  },
  "name": "C.L. Léo Lagrange - Colomiers",
  "url": "http://www.echecs.asso.fr/FicheClub.aspx?Ref=1239",
  "address": "Salle Municipale 1 place Leo Lagrange ex place du Val d'Aran 31770 COLOMIERS",
  "email": "colomiersclubdechecs@gmail.com",
  "website": "http://colomiers.chess.free.fr",
  "coordinates": [
    43.6117764,
    1.3285075
  ]
},
{
  "_id": {
    "$oid": "690586c9e06ce80de6cd7313"
  },
  "name": "Le Fou Furieux de Fontenilles",
  "url": "http://www.echecs.asso.fr/FicheClub.aspx?Ref=3364",
  "address": "Chez Christophe Nassar 39 Chemin Lascraberes 31470 FONTENILLES",
  "email": "nassarchrist@yahoo.fr",
  "website": "",
  "coordinates": [
    43.5562648,
    1.1832356
  ]
},
{
  "_id": {
    "$oid": "690586c9e06ce80de6cd7315"
  },
  "name": "\"Le Gambit \"de Muret",
  "url": "http://www.echecs.asso.fr/FicheClub.aspx?Ref=1264",
  "address": "Maison des Associations 5 Sq des Combattants d'Afrique du Nord Salle B3 31600 MURET",
  "email": "gambitdemuret@gmail.com",
  "website": "http://www.gambit-de-muret.webou.net",
  "coordinates": [
    43.46106289999999,
    1.3218611
  ]
},
{
  "_id": {
    "$oid": "690586c9e06ce80de6cd7319"
  },
  "name": "L'Ouverture Lauragaise",
  "url": "http://www.echecs.asso.fr/FicheClub.aspx?Ref=1823",
  "address": "Place de la Mairie mairie 31570 STE FOY D AIGREFEUILLE",
  "email": "",
  "website": "https://echecsstefoydaigrefeuille.org/",
  "coordinates": [
    43.5922859,
    1.6447674
  ]
},
{
  "_id": {
    "$oid": "690586c9e06ce80de6cd731d"
  },
  "name": "Maison des Echecs Toulouse Lardenne",
  "url": "http://www.echecs.asso.fr/FicheClub.aspx?Ref=1282",
  "address": "Chez M. Guillaume Tatti 53 Chemin Salinie 31100 TOULOUSE",
  "email": "fr.cwiek@gmail.com",
  "website": "https://echecslardenne.fr/",
  "coordinates": [
    43.5936331,
    1.3800097
  ]
},
{
  "_id": {
    "$oid": "690586c9e06ce80de6cd7324"
  },
  "name": "Arcachon Echecs",
  "url": "http://www.echecs.asso.fr/FicheClub.aspx?Ref=98",
  "address": "Nouveau Cercle Arcachonnais 195 boulevard de la Plage 33120 ARCACHON",
  "email": "regislegendre@free.fr",
  "website": "http://www.ncarcachon.fr/",
  "coordinates": [
    44.6626304,
    -1.1692262
  ]
},
{
  "_id": {
    "$oid": "690586c9e06ce80de6cd7326"
  },
  "name": "AGJA-Echiquier Aquitaine",
  "url": "http://www.echecs.asso.fr/FicheClub.aspx?Ref=105",
  "address": "Agja 8 rue Gambetta 33200 BORDEAUX",
  "email": "echiquier-aquitaine@agja.org",
  "website": "www.agja.org",
  "coordinates": [
    44.8494531,
    -0.6144533
  ]
},
{
  "_id": {
    "$oid": "690586c9e06ce80de6cd7329"
  },
  "name": "Echiquier Bordelais",
  "url": "http://www.echecs.asso.fr/FicheClub.aspx?Ref=2207",
  "address": "36 rue Buhan 33000 BORDEAUX",
  "email": "bordelais.echiquier@gmail.com",
  "website": "",
  "coordinates": [
    44.8355969,
    -0.5702916
  ]
},
{
  "_id": {
    "$oid": "690586c9e06ce80de6cd7337"
  },
  "name": "L'Echiquier Sallois",
  "url": "http://www.echecs.asso.fr/FicheClub.aspx?Ref=3337",
  "address": "Mairie de Salles 4 place de la Mairie 33770 SALLES",
  "email": "echiquier.sallois@gmail.com",
  "website": "",
  "coordinates": [
    44.5508977,
    -0.8700511
  ]
},
{
  "_id": {
    "$oid": "690586c9e06ce80de6cd7346"
  },
  "name": "L Echiquier du Dragon, Cercle de jeux de strategie",
  "url": "http://www.echecs.asso.fr/FicheClub.aspx?Ref=2622",
  "address": "8 rue des Soldats 34000 MONTPELLIER",
  "email": "echiquierdudragon@gmail.com",
  "website": "http://www.echiquierdudragon.com",
  "coordinates": [
    43.6081203,
    3.8718228
  ]
},
{
  "_id": {
    "$oid": "690586c9e06ce80de6cd7347"
  },
  "name": "Echiquier Piscénois - Pézénas",
  "url": "http://www.echecs.asso.fr/FicheClub.aspx?Ref=2067",
  "address": "Service Action mairie 34120 PEZENAS",
  "email": "fbressy@gmail.com",
  "website": "https://pezenas.echecs-herault.com/",
  "coordinates": [
    43.461531,
    3.423193
  ]
},
{
  "_id": {
    "$oid": "690586c9e06ce80de6cd734c"
  },
  "name": "Club d Echecs de Sete",
  "url": "http://www.echecs.asso.fr/FicheClub.aspx?Ref=2608",
  "address": "Gymnase Maurice Clavel 22 rue Maurice Clavel 34200 SETE",
  "email": "jpierre.dimercurio@gmail.com",
  "website": "http://www.club-echecs-sete.fr",
  "coordinates": [
    43.40388069999999,
    3.6984976
  ]
},
{
  "_id": {
    "$oid": "690586c9e06ce80de6cd734d"
  },
  "name": "La Garda Del Rei",
  "url": "http://www.echecs.asso.fr/FicheClub.aspx?Ref=3399",
  "address": "3 rue Capitaine Espinadel 34350 VALRAS PLAGE",
  "email": "lagardadelrei.valras@free.fr",
  "website": "",
  "coordinates": [
    43.2475567,
    3.2939641
  ]
},
{
  "_id": {
    "$oid": "690586c9e06ce80de6cd7356"
  },
  "name": "Echiquier du pays de Liffré",
  "url": "http://www.echecs.asso.fr/FicheClub.aspx?Ref=2427",
  "address": "1 le Pont des Planches 35340 LIFFRE",
  "email": "liffre@echecs35.fr",
  "website": "https://liffre.cdechecs35.fr/",
  "coordinates": [
    48.2366925,
    -1.5416273
  ]
},
{
  "_id": {
    "$oid": "690586c9e06ce80de6cd7358"
  },
  "name": "Pion Pacé - MJC",
  "url": "http://www.echecs.asso.fr/FicheClub.aspx?Ref=2720",
  "address": "Espace le Goffic 6 avenue le Goffic 35740 PACE",
  "email": "pionpace@gmail.com",
  "website": "https://www.pion-pace.fr/",
  "coordinates": [
    48.1489693,
    -1.774544
  ]
},
{
  "_id": {
    "$oid": "690586c9e06ce80de6cd735f"
  },
  "name": "La Tour Treveriennaise",
  "url": "http://www.echecs.asso.fr/FicheClub.aspx?Ref=3192",
  "address": "Mairie de Treverien 10 rue de la Forge 35190 TREVERIEN",
  "email": "latourtreveriennaise@free.fr",
  "website": "https://treverien.cdechecs35.fr/",
  "coordinates": [
    48.3719492,
    -1.9299209
  ]
},
{
  "_id": {
    "$oid": "690586c9e06ce80de6cd7361"
  },
  "name": "Echiquier Vitréen",
  "url": "http://www.echecs.asso.fr/FicheClub.aspx?Ref=277",
  "address": "Centre Social 27 rue Notre Dame cour St Louis 1er Etage 35500 VITRE",
  "email": "vitre@echecs35.fr",
  "website": "http://vitre.echecs35.fr/",
  "coordinates": [
    48.1246222,
    -1.2113879
  ]
},
{
  "_id": {
    "$oid": "690586c9e06ce80de6cd7363"
  },
  "name": "Club d'Echecs de Châteauroux",
  "url": "http://www.echecs.asso.fr/FicheClub.aspx?Ref=453",
  "address": "Mlc Belle-Isle 7 avenue Daniel Bernardet 36 000 CHATEAUROUX",
  "email": "",
  "website": "",
  "coordinates": [
    46.8200049,
    1.6939598
  ]
},
{
  "_id": {
    "$oid": "690586c9e06ce80de6cd7364"
  },
  "name": "LE 64 CASES DE DEOLS",
  "url": "http://www.echecs.asso.fr/FicheClub.aspx?Ref=3059",
  "address": "1 rue Henri Barbusse - Appt 18 36130 DEOLS",
  "email": "philau36@yahoo.fr",
  "website": "https://le64casesdedeols.blogspot.fr",
  "coordinates": [
    46.8297547,
    1.7003631
  ]
},
{
  "_id": {
    "$oid": "690586c9e06ce80de6cd723e"
  },
  "name": "Club d'Echecs de Belley",
  "url": "http://www.echecs.asso.fr/FicheClub.aspx?Ref=3232",
  "address": "Formen Centre Commercial carrefour Zone Artisanale De l'Ousson 01300 BELLEY",
  "email": "club.echecsbelley@gmail.com",
  "website": "https://club-echecs-belley.fr/",
  "coordinates": [
    45.7590438,
    5.702224699999999
  ]
},
{
  "_id": {
    "$oid": "690586c9e06ce80de6cd7244"
  },
  "name": "Cercle d'Echecs de Meximieux",
  "url": "http://www.echecs.asso.fr/FicheClub.aspx?Ref=1190",
  "address": "Centre Socio-Culturel rue du Ban Thevenin 01800 MEXIMIEUX",
  "email": "meximieuxechecs@gmail.com",
  "website": "http://meximieuxechecs.fr/",
  "coordinates": [
    45.90592,
    5.19587
  ]
},
{
  "_id": {
    "$oid": "690586c9e06ce80de6cd7247"
  },
  "name": "La Tour Trévoltienne",
  "url": "http://www.echecs.asso.fr/FicheClub.aspx?Ref=1205",
  "address": "32 Grande Rue 01600 TREVOUX",
  "email": "club.echec.trevoux@netcourrier.com",
  "website": "",
  "coordinates": [
    45.9409324,
    4.7745122
  ]
},
{
  "_id": {
    "$oid": "690586c9e06ce80de6cd7249"
  },
  "name": "Echiquier Bernotois",
  "url": "http://www.echecs.asso.fr/FicheClub.aspx?Ref=2146",
  "address": "Mairie de Bernot place de L Eglise 02120 BERNOT",
  "email": "lecomtepit@gmail.com",
  "website": "http://bernot.clubeo.com",
  "coordinates": [
    49.8691494,
    3.4986523
  ]
},
{
  "_id": {
    "$oid": "690586c9e06ce80de6cd724b"
  },
  "name": "Cercle d'Echecs Chaunois",
  "url": "http://www.echecs.asso.fr/FicheClub.aspx?Ref=3313",
  "address": "24 avenue Jean Jaures 02300 CHAUNY",
  "email": "cercledechecschaunois@gmail.com",
  "website": "https://echecschauny.wixsite.com/accueil",
  "coordinates": [
    49.6157194,
    3.2216166
  ]
},
{
  "_id": {
    "$oid": "690586c9e06ce80de6cd724e"
  },
  "name": "La Tour Lehaucourtoise",
  "url": "http://www.echecs.asso.fr/FicheClub.aspx?Ref=2571",
  "address": "2 rue Maurice Thorez 02420",
  "email": "gcoquell@gmail.com",
  "website": "",
  "coordinates": [
    49.920751,
    3.2820566
  ]
},
{
  "_id": {
    "$oid": "690586c9e06ce80de6cd724f"
  },
  "name": "Roi Rouge",
  "url": "http://www.echecs.asso.fr/FicheClub.aspx?Ref=2993",
  "address": "16 bis rue de Neufchatel 02190 MENNEVILLE",
  "email": "pvbeaumont@wanadoo.fr",
  "website": "http://roirouge.clubeo.com",
  "coordinates": [
    49.4203613,
    4.0110923
  ]
},
{
  "_id": {
    "$oid": "690586c9e06ce80de6cd7255"
  },
  "name": "Club d'Echecs et de Shogi de Saint Menoux",
  "url": "http://www.echecs.asso.fr/FicheClub.aspx?Ref=2848",
  "address": "Chez Mr Meyzonnier lieu Dit les Ouches 03210 ST MENOUX",
  "email": "cyrilmeyzonnier@icloud.com",
  "website": "https://www.facebook.com/clubdechecsetdeshogidesaintmenoux",
  "coordinates": [
    46.582343,
    3.1728997
  ]
},
{
  "_id": {
    "$oid": "690586c9e06ce80de6cd7258"
  },
  "name": "Durance Echecs",
  "url": "http://www.echecs.asso.fr/FicheClub.aspx?Ref=3036",
  "address": "64d avenue du General De gaulle 04160 CHATEAU ARNOUX ST AUBAN",
  "email": "chichjeanmarc@gmail.com",
  "website": "",
  "coordinates": [
    44.097954,
    6.0110819
  ]
},
{
  "_id": {
    "$oid": "690586c9e06ce80de6cd725a"
  },
  "name": "Echiquier Pierreverdant",
  "url": "http://www.echecs.asso.fr/FicheClub.aspx?Ref=1599",
  "address": "10 Av.du Defens 04860 PIERREVERT",
  "email": "matthewcanham9@gmail.com",
  "website": "http://pierrevert-echecs.fr",
  "coordinates": [
    43.8193768,
    5.7405449
  ]
},
{
  "_id": {
    "$oid": "690586c9e06ce80de6cd725e"
  },
  "name": "Echiquier Antibois",
  "url": "http://www.echecs.asso.fr/FicheClub.aspx?Ref=2634",
  "address": "Maison des Associations 288 Chemin St Claude 06600 ANTIBES",
  "email": "echiquier.antibois@gmail.com",
  "website": "https://echiquierantibois.fr/",
  "coordinates": [
    43.5944222,
    7.112582100000001
  ]
},
{
  "_id": {
    "$oid": "690586c9e06ce80de6cd7260"
  },
  "name": "Cannes Echecs",
  "url": "http://www.echecs.asso.fr/FicheClub.aspx?Ref=311",
  "address": "3 avenue du Petit Juas 06400 CANNES",
  "email": "info@cannes-echecs.fr",
  "website": "http://www.cannes-echecs.fr",
  "coordinates": [
    43.5553362,
    7.0147847
  ]
},
{
  "_id": {
    "$oid": "690586c9e06ce80de6cd7262"
  },
  "name": "Azur Chess Club",
  "url": "http://www.echecs.asso.fr/FicheClub.aspx?Ref=2680",
  "address": "Res le Marco Polo Ketch D 2e Etage 312 Bld des Ecureuils 06210 MANDELIEU LA NAPOULE",
  "email": "eric.sighirdjian@sfr.fr",
  "website": "http://azurchessclub.fr",
  "coordinates": [
    43.5420528,
    6.9443551
  ]
},
{
  "_id": {
    "$oid": "690586c9e06ce80de6cd726e"
  },
  "name": "Les 4 Fils Aymon Bogny sur Meuse",
  "url": "http://www.echecs.asso.fr/FicheClub.aspx?Ref=396",
  "address": "Salle Remi Pechenart rue de Levrezy 08120 BOGNY SUR MEUSE",
  "email": "eliet08.bogny@gmail.com",
  "website": "",
  "coordinates": [
    49.8592785,
    4.7588917
  ]
},
{
  "_id": {
    "$oid": "690586c9e06ce80de6cd7274"
  },
  "name": "Club d'Echecs - Les Tours de Foix",
  "url": "http://www.echecs.asso.fr/FicheClub.aspx?Ref=1251",
  "address": "1 bd Raphael Capdeville 09000 FOIX",
  "email": "marc.font123@orange.fr",
  "website": "",
  "coordinates": [
    42.9578739,
    1.6081157
  ]
},
{
  "_id": {
    "$oid": "690586c9e06ce80de6cd727d"
  },
  "name": "Echiquier Bellopodien",
  "url": "http://www.echecs.asso.fr/FicheClub.aspx?Ref=3225",
  "address": "Hameau de Tresmezes 11420 BELPECH",
  "email": "philippe.gliere@wanadoo.fr",
  "website": "",
  "coordinates": [
    43.174876,
    1.767684
  ]
},
{
  "_id": {
    "$oid": "690586c9e06ce80de6cd727e"
  },
  "name": "Les Tours de Bram",
  "url": "http://www.echecs.asso.fr/FicheClub.aspx?Ref=3366",
  "address": "Mairie de Bram rue du Chanoine Andrieu 11150 BRAM",
  "email": "lestoursdebram@proton.me",
  "website": "",
  "coordinates": [
    43.244685,
    2.1142901
  ]
},
{
  "_id": {
    "$oid": "690586c9e06ce80de6cd7286"
  },
  "name": "Le Roque Najacois",
  "url": "http://www.echecs.asso.fr/FicheClub.aspx?Ref=3283",
  "address": "Lieu Dit Cassagnes 12270 NAJAC",
  "email": "paugam.jy@orange.fr",
  "website": "",
  "coordinates": [
    44.200866,
    1.99028
  ]
},
{
  "_id": {
    "$oid": "690586c9e06ce80de6cd7287"
  },
  "name": "Echiquier du Segala",
  "url": "http://www.echecs.asso.fr/FicheClub.aspx?Ref=3396",
  "address": "Mairie de Naucelle 1 place de l'Hotel de Ville 12800 NAUCELLE",
  "email": "echiquier.segala@gmail.com",
  "website": "",
  "coordinates": [
    44.1980888,
    2.3417484
  ]
},
{
  "_id": {
    "$oid": "690586c9e06ce80de6cd7289"
  },
  "name": "MJC Rodez - Echecs",
  "url": "http://www.echecs.asso.fr/FicheClub.aspx?Ref=1270",
  "address": "1 rue St Cyrice 12000 RODEZ",
  "email": "fabigzt@yahoo.fr",
  "website": "https://mjcrodez.fr/clubs/activit%C3%A9s/jeux/96-%C3%A9checs-et-%C3%A9cole-d-%C3%A9checs.html",
  "coordinates": [
    44.3529768,
    2.5783022
  ]
},
{
  "_id": {
    "$oid": "690586c9e06ce80de6cd7291"
  },
  "name": "Echiquiers Alpilles Durance",
  "url": "http://www.echecs.asso.fr/FicheClub.aspx?Ref=1571",
  "address": "Espace Municipal Associatif Et citoyen le Quai 32bis boulevard Gambetta 13160 CHATEAURENARD",
  "email": "echecs.ead.chato@gmail.com",
  "website": "http://echiquiers-alpilles-durance.fr",
  "coordinates": [
    43.8852602,
    4.852361999999999
  ]
},
{
  "_id": {
    "$oid": "690586c9e06ce80de6cd7293"
  },
  "name": "La Ciotat Echecs (LCE)",
  "url": "http://www.echecs.asso.fr/FicheClub.aspx?Ref=2558",
  "address": "Traverse Ventre 13b Lot les Pins 13600 LA CIOTAT",
  "email": "laciotatechecs@outlook.com",
  "website": "http://laciotatechecs.com",
  "coordinates": [
    43.1840295,
    5.5947855
  ]
},
{
  "_id": {
    "$oid": "690586c9e06ce80de6cd7294"
  },
  "name": "Club d'Echecs Pennois (CEP)",
  "url": "http://www.echecs.asso.fr/FicheClub.aspx?Ref=2921",
  "address": "Maison des Associations 19 Bvd de la Gare 13821 LA PENNE SUR HUVEAUNE",
  "email": "ldt.gouilles@orange.fr",
  "website": "https://echecslapennesurhuveaune.blogspot.com/",
  "coordinates": [
    43.2833215,
    5.5144724
  ]
},
{
  "_id": {
    "$oid": "690586c9e06ce80de6cd7296"
  },
  "name": "Echiquier Mallemort Club",
  "url": "http://www.echecs.asso.fr/FicheClub.aspx?Ref=3279",
  "address": "203 rue de la Campagne 13370 MALLEMORT",
  "email": "echiquier.mallemortais@gmail.com",
  "website": "",
  "coordinates": [
    43.7208291,
    5.1953554
  ]
},
{
  "_id": {
    "$oid": "690586c9e06ce80de6cd7298"
  },
  "name": "U.S.C.M.",
  "url": "http://www.echecs.asso.fr/FicheClub.aspx?Ref=1590",
  "address": "13 rue Benedit 13001 MARSEILLE",
  "email": "gilbert.dhamelincourt@gmail.com",
  "website": "http://uscm-echecs.blogspot.fr/",
  "coordinates": [
    43.3064695,
    5.3922827
  ]
},
{
  "_id": {
    "$oid": "690586c9e06ce80de6cd729c"
  },
  "name": "Echecs Academy de Marseille",
  "url": "http://www.echecs.asso.fr/FicheClub.aspx?Ref=3347",
  "address": "93 Canebiere 13001 MARSEILLE",
  "email": "echecsacademydemarseille@gmail.com",
  "website": "https://www.echecsacademydemarseille.com/",
  "coordinates": [
    43.2981771,
    5.381706599999999
  ]
},
{
  "_id": {
    "$oid": "690586c9e06ce80de6cd729d"
  },
  "name": "Les 3 Tours - Martigues",
  "url": "http://www.echecs.asso.fr/FicheClub.aspx?Ref=1588",
  "address": "Chez Geoffroy Normand 3 allee Jean Marie Collot d'Herbois 13500 MARTIGUES",
  "email": "normand.geoffroy@neuf.fr",
  "website": "",
  "coordinates": [
    43.3812134,
    5.0702794
  ]
},
{
  "_id": {
    "$oid": "690586c9e06ce80de6cd72a0"
  },
  "name": "Salon Nostradamus",
  "url": "http://www.echecs.asso.fr/FicheClub.aspx?Ref=1606",
  "address": "Cercle des Arts rue des Fileuses de Soie 13300 SALON DE PROVENCE",
  "email": "echiquiernostradamus@yahoo.fr",
  "website": "http://echiquiernostradamus.asso-web.com/",
  "coordinates": [
    43.6410745,
    5.0953311
  ]
},
{
  "_id": {
    "$oid": "690586c9e06ce80de6cd72a7"
  },
  "name": "Echecs sous les Pommiers",
  "url": "http://www.echecs.asso.fr/FicheClub.aspx?Ref=3428",
  "address": "73 avenue de la Crosse 14700 FALAISE",
  "email": "echecsfalaise@gmail.com",
  "website": "",
  "coordinates": [
    48.8849405,
    -0.1962835
  ]
},
{
  "_id": {
    "$oid": "690586c9e06ce80de6cd72b1"
  },
  "name": "Les Tours d'Angoulême",
  "url": "http://www.echecs.asso.fr/FicheClub.aspx?Ref=3135",
  "address": "Rue Marcel Pierre batiment - sur la Gauche - 30 metres Avant le Stop 16000 ANGOULEME",
  "email": "lestoursdangouleme@gmail.com",
  "website": "https://lestoursdangouleme.wordpress.com/",
  "coordinates": [
    45.6536072,
    0.1419074
  ]
},
{
  "_id": {
    "$oid": "690586c9e06ce80de6cd72b5"
  },
  "name": "Les Tours Du Montbronnais",
  "url": "http://www.echecs.asso.fr/FicheClub.aspx?Ref=1911",
  "address": "Mairie de Montbron rue d'Angouleme 16220 MONTBRON",
  "email": "ltdm@orange.fr",
  "website": "http://www.ltdm.eu",
  "coordinates": [
    45.6667046,
    0.4991348
  ]
},
{
  "_id": {
    "$oid": "690586c9e06ce80de6cd72ba"
  },
  "name": "Echecs Royan",
  "url": "http://www.echecs.asso.fr/FicheClub.aspx?Ref=3355",
  "address": "Maison des Associations 61 B rue Paul Doumer 17200 ROYAN",
  "email": "echecs.royan@gmail.com",
  "website": "https://echecsroyan.wordpress.com",
  "coordinates": [
    45.6297225,
    -1.0294264
  ]
},
{
  "_id": {
    "$oid": "690586c9e06ce80de6cd72c8"
  },
  "name": "Echiquier Guingampais",
  "url": "http://www.echecs.asso.fr/FicheClub.aspx?Ref=243",
  "address": "Centre Culturel-Mediatheque place du Champ au Roy 22200 GUINGAMP",
  "email": "alain-luco@wanadoo.fr",
  "website": "http://www.echiquierguingampais.com",
  "coordinates": [
    48.5619753,
    -3.1489567
  ]
},
{
  "_id": {
    "$oid": "690586c9e06ce80de6cd72ca"
  },
  "name": "Echedou Paimpol",
  "url": "http://www.echecs.asso.fr/FicheClub.aspx?Ref=3270",
  "address": "48 Hent Porzh Ar Berezed 22470 PLOUEZEC",
  "email": "echedou3paimpol@gmail.com",
  "website": "https://echedoupaimpol.wordpress.com",
  "coordinates": [
    48.758052,
    -2.967812
  ]
},
{
  "_id": {
    "$oid": "690586c9e06ce80de6cd72d1"
  },
  "name": "Echecs-Passion Yffiniac",
  "url": "http://www.echecs.asso.fr/FicheClub.aspx?Ref=278",
  "address": "Mairie place de la Mairie 22120 YFFINIAC",
  "email": "anthony.cleran@wanadoo.fr",
  "website": "http://echecs-passionyffiniac.jimdo.com/",
  "coordinates": [
    48.4844464,
    -2.676788
  ]
},
{
  "_id": {
    "$oid": "690586c9e06ce80de6cd72d8"
  },
  "name": "Tour Prends Garde! Besancon",
  "url": "http://www.echecs.asso.fr/FicheClub.aspx?Ref=555",
  "address": "Maison de Quartier de Saint-Ferjeux 1 avenue Ducat 25000 BESANCON",
  "email": "president@tpgbesancon.com",
  "website": "http://tpgbesancon.com",
  "coordinates": [
    47.230622,
    5.9920994
  ]
},
{
  "_id": {
    "$oid": "690586c9e06ce80de6cd72dc"
  },
  "name": "Atelier Echecs de Crest",
  "url": "http://www.echecs.asso.fr/FicheClub.aspx?Ref=3139",
  "address": "14 rue Sadi Carnot 26400 CREST",
  "email": "alexisrodriguez@sfr.fr",
  "website": "",
  "coordinates": [
    44.73000070000001,
    5.019104899999999
  ]
},
{
  "_id": {
    "$oid": "690586c9e06ce80de6cd72dd"
  },
  "name": "Montelimar Echecs",
  "url": "http://www.echecs.asso.fr/FicheClub.aspx?Ref=3307",
  "address": "2 rue des Grezes 26200 MONTELIMAR",
  "email": "contact@montelimar-echecs.fr",
  "website": "https://www.montelimar-echecs.fr",
  "coordinates": [
    44.5495846,
    4.7468515
  ]
},
{
  "_id": {
    "$oid": "690586c9e06ce80de6cd72df"
  },
  "name": "L'Echiquier Romanais Peageois",
  "url": "http://www.echecs.asso.fr/FicheClub.aspx?Ref=531",
  "address": "1 rue Docq 26100 ROMANS SUR ISERE",
  "email": "erp.echecs@gmail.com",
  "website": "https://www.echiquier-romanais-peageois.fr",
  "coordinates": [
    45.0470121,
    5.0440271
  ]
},
{
  "_id": {
    "$oid": "690586c9e06ce80de6cd72e4"
  },
  "name": "Gravigny Echecs",
  "url": "http://www.echecs.asso.fr/FicheClub.aspx?Ref=3406",
  "address": "Mairie 115 Av Aristide Briant 27930 GRAVIGNY",
  "email": "gravignyechecs@gmail.com",
  "website": "facebook/Gravigny Echecs",
  "coordinates": [
    49.04750629999999,
    1.1623501
  ]
},
{
  "_id": {
    "$oid": "690586c9e06ce80de6cd72ea"
  },
  "name": "Dreux Philidor",
  "url": "http://www.echecs.asso.fr/FicheClub.aspx?Ref=599",
  "address": "Mairie de Dreux 2 rue de Chateaudun 28100 DREUX",
  "email": "a.iwianowski@gmail.com",
  "website": "https://www.facebook.com/groups/2491258607932841/",
  "coordinates": [
    48.73610410000001,
    1.3708771
  ]
},
{
  "_id": {
    "$oid": "690586c9e06ce80de6cd72ed"
  },
  "name": "Club d'Echecs Pays de l'Aven",
  "url": "http://www.echecs.asso.fr/FicheClub.aspx?Ref=3360",
  "address": "150 Ty Nevez Kermoal 29380 BANNALEC",
  "email": "clubdechecspaysdelaven@gmail.com",
  "website": "",
  "coordinates": [
    47.9094579,
    -3.6750812
  ]
},
{
  "_id": {
    "$oid": "690586c9e06ce80de6cd72ee"
  },
  "name": "USAM Echiquier Brestois",
  "url": "http://www.echecs.asso.fr/FicheClub.aspx?Ref=275",
  "address": "2 rue du Docteur Thielmans 29200 BREST",
  "email": "echecs@usambrest.com",
  "website": "https://echecs.usambrest.com",
  "coordinates": [
    48.3836276,
    -4.4995195
  ]
},
{
  "_id": {
    "$oid": "690586c9e06ce80de6cd72f0"
  },
  "name": "Douarnenez Chess Club",
  "url": "http://www.echecs.asso.fr/FicheClub.aspx?Ref=3345",
  "address": "8 rue Guy Moquet 29100 DOUARNENEZ",
  "email": "douarnenezchessclub@gmail.com",
  "website": "",
  "coordinates": [
    48.0930386,
    -4.3262903
  ]
},
{
  "_id": {
    "$oid": "690586c9e06ce80de6cd72f7"
  },
  "name": "Club d'Echecs de Pont l'Abbé",
  "url": "http://www.echecs.asso.fr/FicheClub.aspx?Ref=3040",
  "address": "Maison des Associations 29120 PONT L ABBE",
  "email": "",
  "website": "",
  "coordinates": [
    47.87073849999999,
    -4.2252978
  ]
},
{
  "_id": {
    "$oid": "690586c9e06ce80de6cd72f8"
  },
  "name": "Echiquier Quimpérois",
  "url": "http://www.echecs.asso.fr/FicheClub.aspx?Ref=260",
  "address": "Maison Pour Tous de Kerfeunteun 4 rue Teilhard de Chardin 29000 QUIMPER",
  "email": "echiquier.quimperois@gmail.com",
  "website": "http://www.echiquierquimperois.fr",
  "coordinates": [
    48.0026508,
    -4.0938519
  ]
},
{
  "_id": {
    "$oid": "690586c9e06ce80de6cd72fb"
  },
  "name": "Fianchetto du roi",
  "url": "http://www.echecs.asso.fr/FicheClub.aspx?Ref=2920",
  "address": "10 place du Rouz 29900 CONCARNEAU",
  "email": "fianchettoduroi@gmail.com",
  "website": "https://echecsrosporden.org/",
  "coordinates": [
    47.86924699999999,
    -3.9068337
  ]
},
{
  "_id": {
    "$oid": "690586c9e06ce80de6cd72fd"
  },
  "name": "Echiquier du Pays de Morlaix",
  "url": "http://www.echecs.asso.fr/FicheClub.aspx?Ref=3353",
  "address": "Mairie St Martin des Champs 5 place de la Barriere 29600 ST MARTIN DES CHAMPS",
  "email": "jasselin.gerard@wanadoo.fr",
  "website": "https://www.lechiquierdupaysdemorlaix.fr",
  "coordinates": [
    48.57446119999999,
    -3.8439181
  ]
},
{
  "_id": {
    "$oid": "690586c9e06ce80de6cd72fe"
  },
  "name": "Echecs-Club Ajaccien",
  "url": "http://www.echecs.asso.fr/FicheClub.aspx?Ref=1821",
  "address": "Lieu Dit la Fontaine du Vittulu route du Vittulu 20090 AJACCIO",
  "email": "ecajaccio@gmail.com",
  "website": "https://echecs-club-ajaccien.com/",
  "coordinates": [
    41.919229,
    8.738635
  ]
},
{
  "_id": {
    "$oid": "690586c9e06ce80de6cd7301"
  },
  "name": "Pion 2B",
  "url": "http://www.echecs.asso.fr/FicheClub.aspx?Ref=3235",
  "address": "415 Lotissement Campo Vallone 20620 BIGUGLIA",
  "email": "pion2b@gmail.com",
  "website": "",
  "coordinates": [
    42.5929447,
    9.4305232
  ]
},
{
  "_id": {
    "$oid": "690586c9e06ce80de6cd7305"
  },
  "name": "Echecs Club du Fium'Orbu",
  "url": "http://www.echecs.asso.fr/FicheClub.aspx?Ref=1851",
  "address": "Mr Dehainault route de la Montagne abbazia 20243 PRUNELLI DI FIUMORBO",
  "email": "",
  "website": "",
  "coordinates": [
    42.005225,
    9.364730999999999
  ]
},
{
  "_id": {
    "$oid": "690586c9e06ce80de6cd730a"
  },
  "name": "Viganechecs",
  "url": "http://www.echecs.asso.fr/FicheClub.aspx?Ref=3301",
  "address": "1 place Quatrefages de La roquete 30120 LE VIGAN",
  "email": "viganechecs@gmail.com",
  "website": "",
  "coordinates": [
    43.99294,
    3.606794
  ]
},
{
  "_id": {
    "$oid": "690586c9e06ce80de6cd7314"
  },
  "name": "Echiquier du Frontonnais",
  "url": "http://www.echecs.asso.fr/FicheClub.aspx?Ref=3322",
  "address": "Mairie 1 Esplanade Marcorelle 31620 FRONTON",
  "email": "lechiquierdufrontonnais@gmail.com",
  "website": "http://lechiquierdufrontonnais.fr",
  "coordinates": [
    43.8400594,
    1.3898254
  ]
},
{
  "_id": {
    "$oid": "690586c9e06ce80de6cd7317"
  },
  "name": "L'Attaque d'Euphron - Pibrac Echecs",
  "url": "http://www.echecs.asso.fr/FicheClub.aspx?Ref=3308",
  "address": "42 Chemin Benauze 31820 PIBRAC",
  "email": "PibracEchecs@gmail.com",
  "website": "",
  "coordinates": [
    43.6216123,
    1.232037
  ]
},
{
  "_id": {
    "$oid": "690586c9e06ce80de6cd731a"
  },
  "name": "l'Echiquier Toulousain",
  "url": "http://www.echecs.asso.fr/FicheClub.aspx?Ref=1285",
  "address": "19 rue Bayard - Atscaf 31000 TOULOUSE",
  "email": "echiquier.toulousain@gmail.com",
  "website": "http://echiquiertoulousain.com",
  "coordinates": [
    43.6092696,
    1.4479355
  ]
},
{
  "_id": {
    "$oid": "690586c9e06ce80de6cd731b"
  },
  "name": "Cercle Airbus Toulouse Echecs",
  "url": "http://www.echecs.asso.fr/FicheClub.aspx?Ref=1222",
  "address": "L.A.C. Espace Loisirs 316 route de Bayonne BP 83172 31027 TOULOUSE CEDEX 03",
  "email": "echecs@cseairbus.com",
  "website": "https://cateairbus.fr/",
  "coordinates": [
    43.6095584,
    1.3590585
  ]
},
{
  "_id": {
    "$oid": "690586c9e06ce80de6cd7322"
  },
  "name": "La Tour Lisloise",
  "url": "http://www.echecs.asso.fr/FicheClub.aspx?Ref=3285",
  "address": "217 Chemin de l'Aoueilleron 32600 PUJAUDRAN",
  "email": "latourlisloise@gmail.com",
  "website": "",
  "coordinates": [
    43.58792769999999,
    1.1477286
  ]
},
{
  "_id": {
    "$oid": "690586c9e06ce80de6cd7327"
  },
  "name": "Bordeaux ASPOM Echecs",
  "url": "http://www.echecs.asso.fr/FicheClub.aspx?Ref=106",
  "address": "130 bis Amedee St Germain 33800 BORDEAUX",
  "email": "president.aspom@gmail.com",
  "website": "http://www.aspomechecs.fr",
  "coordinates": [
    44.8177208,
    -0.5640065000000001
  ]
},
{
  "_id": {
    "$oid": "690586c9e06ce80de6cd732a"
  },
  "name": "Echiquier Albert Le Grand",
  "url": "http://www.echecs.asso.fr/FicheClub.aspx?Ref=2774",
  "address": "189 rue Saint Genes 33000 BORDEAUX",
  "email": "littledragoon33@hotmail.com",
  "website": "http://echiquieralg.canalblog.com/",
  "coordinates": [
    44.8238366,
    -0.5820122999999999
  ]
},
{
  "_id": {
    "$oid": "690586c9e06ce80de6cd732e"
  },
  "name": "Echiquier Club Créonnais",
  "url": "http://www.echecs.asso.fr/FicheClub.aspx?Ref=119",
  "address": "Maireie de Creon 50 place de la Prevote bp49 33670 CREON",
  "email": "contact@creon-echecs.fr",
  "website": "https://creon-echecs.fr/",
  "coordinates": [
    44.7744149,
    -0.3484998
  ]
},
{
  "_id": {
    "$oid": "690586c9e06ce80de6cd732f"
  },
  "name": "Gujan-Mestras Echecs",
  "url": "http://www.echecs.asso.fr/FicheClub.aspx?Ref=1877",
  "address": "Centre Saint-Exupery 41 rue de l'Yser 33470 GUJAN MESTRAS",
  "email": "gujan.mestras.echecs@gmail.com",
  "website": "http://webchess.wix.com/gujan-mestras-echecs/",
  "coordinates": [
    44.6411322,
    -1.069253
  ]
},
{
  "_id": {
    "$oid": "690586c9e06ce80de6cd7330"
  },
  "name": "Echiquier Médocain",
  "url": "http://www.echecs.asso.fr/FicheClub.aspx?Ref=1746",
  "address": "4 Chemin du Pas des Sauts 33340 LESPARRE MEDOC",
  "email": "echiquiermedocain@gmail.com",
  "website": "http://echiquier-medocain.fr",
  "coordinates": [
    45.2769741,
    -0.9541451999999999
  ]
},
{
  "_id": {
    "$oid": "690586c9e06ce80de6cd7332"
  },
  "name": "Parempuyre Echecs",
  "url": "http://www.echecs.asso.fr/FicheClub.aspx?Ref=2640",
  "address": "Maison des Associations 47 avenue du General de Gaulle 33290 PAREMPUYRE",
  "email": "djimmy.klein@orange.fr",
  "website": "",
  "coordinates": [
    44.9147845,
    -0.6345199
  ]
},
{
  "_id": {
    "$oid": "690586c9e06ce80de6cd7334"
  },
  "name": "Cheval Bayard",
  "url": "http://www.echecs.asso.fr/FicheClub.aspx?Ref=3249",
  "address": "Mairie 8 place Raoul Larche 33240 ST ANDRE DE CUBZAC",
  "email": "contact@cheval-bayard.club",
  "website": "",
  "coordinates": [
    44.9948169,
    -0.446334
  ]
},
{
  "_id": {
    "$oid": "690586c9e06ce80de6cd7336"
  },
  "name": "ASSM - Ass sportive St Medard en Jalles",
  "url": "http://www.echecs.asso.fr/FicheClub.aspx?Ref=3104",
  "address": "Complexe Sportif R. Monseau rue Charles Capsec 33160 ST MEDARD EN JALLES",
  "email": "stephane.bastin1805@gmail.com",
  "website": "",
  "coordinates": [
    44.8839858,
    -0.7063288999999999
  ]
},
{
  "_id": {
    "$oid": "690586c9e06ce80de6cd7338"
  },
  "name": "Echiquier Tressois",
  "url": "http://www.echecs.asso.fr/FicheClub.aspx?Ref=2124",
  "address": "Mairie de Tresses 5 avenue des Ecoles 33370 TRESSES",
  "email": "echiquier.tressois@gmail.com",
  "website": "https://www.echiquiertressois.fr/",
  "coordinates": [
    44.8477456,
    -0.4641326
  ]
},
{
  "_id": {
    "$oid": "690586c9e06ce80de6cd733f"
  },
  "name": "La Diagonale du Lac - CE de Clermont l'Herault",
  "url": "http://www.echecs.asso.fr/FicheClub.aspx?Ref=3261",
  "address": "275 Chemin Pioch de Comte 34800 CLERMONT L HERAULT",
  "email": "echecs@ladiagonaledulac.fr",
  "website": "https://ladiagonaledulac.fr/",
  "coordinates": [
    43.6457677,
    3.4609728
  ]
},
{
  "_id": {
    "$oid": "690586c9e06ce80de6cd7340"
  },
  "name": "L'échiquier La Domitienne Colombiers-Maraussan",
  "url": "http://www.echecs.asso.fr/FicheClub.aspx?Ref=2994",
  "address": "Maison des Associations port de Plaisance avenue de Beziers 34440",
  "email": "cire.bea@orange.fr",
  "website": "http://Lechiquierladomitienne.wordpress.com",
  "coordinates": [
    43.3108579,
    3.1527849
  ]
},
{
  "_id": {
    "$oid": "690586c9e06ce80de6cd7341"
  },
  "name": "Echiquiers de la Gardiole",
  "url": "http://www.echecs.asso.fr/FicheClub.aspx?Ref=1777",
  "address": "44 les Jardins de la Robine 34110 VIC LA GARDIOLE",
  "email": "echiquiersdelagardiole@gmail.com",
  "website": "https://www.facebook.com/echiquiersdelagardiole/",
  "coordinates": [
    43.497251,
    3.7826112
  ]
},
{
  "_id": {
    "$oid": "690586c9e06ce80de6cd734e"
  },
  "name": "Echec et Mag VLM",
  "url": "http://www.echecs.asso.fr/FicheClub.aspx?Ref=3359",
  "address": "Zae du Larzat 757 avenue du Moulin de La jasse 34750 VILLENEUVE LES MAGUELONE",
  "email": "echecetmag@gmail.com",
  "website": "",
  "coordinates": [
    43.548863,
    3.830943
  ]
},
{
  "_id": {
    "$oid": "690586c9e06ce80de6cd7350"
  },
  "name": "Betton Echecs Club",
  "url": "http://www.echecs.asso.fr/FicheClub.aspx?Ref=2134",
  "address": "11 allee du Champ Huby 35520 LA CHAPELLE DES FOUGERETZ",
  "email": "bettonechecs@gmail.com",
  "website": "http://betton.echecs35.fr",
  "coordinates": [
    48.1802747,
    -1.725364
  ]
},
{
  "_id": {
    "$oid": "690586c9e06ce80de6cd7354"
  },
  "name": "Echiquier Domloupéen",
  "url": "http://www.echecs.asso.fr/FicheClub.aspx?Ref=1918",
  "address": "Salle Caissa rue du Petit Bois 35410 DOMLOUP",
  "email": "domloup@echecs35.fr",
  "website": "https://domloup.echecs35.fr",
  "coordinates": [
    48.0625625,
    -1.521838
  ]
},
{
  "_id": {
    "$oid": "690586c9e06ce80de6cd735b"
  },
  "name": "Rennes Paul Bert",
  "url": "http://www.echecs.asso.fr/FicheClub.aspx?Ref=266",
  "address": "30 bis rue de Paris BP 60401 35704 RENNES CEDEX 7",
  "email": "cpbechecs@gmail.com",
  "website": "https://rennespaulbert-echecs.kalisport.com/",
  "coordinates": [
    48.117266,
    -1.6777926
  ]
},
{
  "_id": {
    "$oid": "690586c9e06ce80de6cd735c"
  },
  "name": "Echiquier Rennes - Les Longs  Pres",
  "url": "http://www.echecs.asso.fr/FicheClub.aspx?Ref=2436",
  "address": "3 rue des Longs Pres 35700 RENNES",
  "email": "echiquier.longspres@gmail.com",
  "website": "https://rlpechecs.wixsite.com/rlpe",
  "coordinates": [
    48.1325013,
    -1.6558894
  ]
},
{
  "_id": {
    "$oid": "690586c9e06ce80de6cd735e"
  },
  "name": "l'Echiquier Malouin",
  "url": "http://www.echecs.asso.fr/FicheClub.aspx?Ref=3205",
  "address": "Comite de Quartier St Servan 1 place Bouvet 35400 ST MALO",
  "email": "echiquiermalouin@laposte.net",
  "website": "https://stmalo.cdechecs35.fr",
  "coordinates": [
    48.6377609,
    -2.0160439
  ]
},
{
  "_id": {
    "$oid": "690586c9e06ce80de6cd7367"
  },
  "name": "Club d'Echecs de Bourgueil",
  "url": "http://www.echecs.asso.fr/FicheClub.aspx?Ref=442",
  "address": "Salle Emile Bouin mail Orye 37140 BOURGUEIL",
  "email": "echecsbourgueil@gmail.com",
  "website": "http://www.echecsbourgueil.e-monsite.com",
  "coordinates": [
    47.2823869,
    0.1718504
  ]
},
{
  "_id": {
    "$oid": "690586c9e06ce80de6cd7368"
  },
  "name": "Saint-Etienne Echecs",
  "url": "http://www.echecs.asso.fr/FicheClub.aspx?Ref=2633",
  "address": "College Prive 1 bis Horizon Vert BP 313 cedex 03 37170 CHAMBRAY LES TOURS",
  "email": "saintetienne.echecs@gmail.com",
  "website": "https://www.collegesaintetienne.fr/jeux-dechecs/",
  "coordinates": [
    47.3464263,
    0.7227545
  ]
},
{
  "_id": {
    "$oid": "690586c9e06ce80de6cd736c"
  },
  "name": "Les Cavaliers de Nerra",
  "url": "http://www.echecs.asso.fr/FicheClub.aspx?Ref=3238",
  "address": "Maison des Associations 1 avenue Aristide Briand 37600 LOCHES",
  "email": "lescavaliersdenerra@gmail.com",
  "website": "https://lescavaliersdenerra.wixsite.com/association",
  "coordinates": [
    47.122143,
    1.002248
  ]
},
{
  "_id": {
    "$oid": "690586c9e06ce80de6cd736e"
  },
  "name": "Echiquier Corpopetrussien",
  "url": "http://www.echecs.asso.fr/FicheClub.aspx?Ref=2723",
  "address": "7 rue Sacco et Vanzetti 37700 ST PIERRE DES CORPS",
  "email": "michel.auffray1789@gmail.com",
  "website": "http://www.echiquiercorpopetrussien.fr/",
  "coordinates": [
    47.3916682,
    0.7147412
  ]
},
{
  "_id": {
    "$oid": "690586c9e06ce80de6cd7370"
  },
  "name": "La Dame Blanche Bourgoin-Jallieu",
  "url": "http://www.echecs.asso.fr/FicheClub.aspx?Ref=510",
  "address": "Maison des Associations La givre 29 rue du Martin Pecheur 38300 BOURGOIN JALLIEU",
  "email": "echecsbj@gmail.com",
  "website": "",
  "coordinates": [
    45.5982028,
    5.233033799999999
  ]
},
{
  "_id": {
    "$oid": "690586c9e06ce80de6cd7371"
  },
  "name": "Echiquier du Gresivaudan",
  "url": "http://www.echecs.asso.fr/FicheClub.aspx?Ref=3221",
  "address": "318 Montee de la Ville 38530 CHAPAREILLAN",
  "email": "echiquierdugresivaudan@gmail.com",
  "website": "https://echiquierdugresiva.wixsite.com/siteweb",
  "coordinates": [
    45.46942199999999,
    5.9803067
  ]
},
{
  "_id": {
    "$oid": "690586c9e06ce80de6cd7372"
  },
  "name": "Gresivaudan Echecs",
  "url": "http://www.echecs.asso.fr/FicheClub.aspx?Ref=523",
  "address": "Maison de Jeunes et de La culture avenue J. Curie - cidex 244 38920 CROLLES",
  "email": "contact@gresivaudan-echecs.org",
  "website": "https://www.gresivaudan-echecs.org/",
  "coordinates": [
    45.2794592,
    5.8757558
  ]
},
{
  "_id": {
    "$oid": "690586c9e06ce80de6cd7375"
  },
  "name": "Echiquier Grenoblois",
  "url": "http://www.echecs.asso.fr/FicheClub.aspx?Ref=524",
  "address": "7 B rue Aristide Berges 38000 GRENOBLE",
  "email": "contact@echiquiergrenoblois.org",
  "website": "http://echiquiergrenoblois.org",
  "coordinates": [
    45.19155569999999,
    5.7186353
  ]
},
{
  "_id": {
    "$oid": "690586c9e06ce80de6cd737e"
  },
  "name": "Echiquier Ledonien",
  "url": "http://www.echecs.asso.fr/FicheClub.aspx?Ref=571",
  "address": "Chez Olivier Minaud 13 rue de Pavigny 39000 LONS LE SAUNIER",
  "email": "contact@echiquier-ledonien.fr",
  "website": "https://www.echiquier-ledonien.fr/",
  "coordinates": [
    46.6710866,
    5.560516799999999
  ]
},
{
  "_id": {
    "$oid": "690586c9e06ce80de6cd7386"
  },
  "name": "Echiquier Montois",
  "url": "http://www.echecs.asso.fr/FicheClub.aspx?Ref=146",
  "address": "Maison des Associations J. vincens 39 rue Martin Luther king 40000 MONT DE MARSAN",
  "email": "b.dubertrand@orange.fr",
  "website": "http://www.echiquier-montois.fr/",
  "coordinates": [
    43.896658,
    -0.4941522
  ]
},
{
  "_id": {
    "$oid": "690586c9e06ce80de6cd7387"
  },
  "name": "L'Echiquier de l'Adour",
  "url": "http://www.echecs.asso.fr/FicheClub.aspx?Ref=3404",
  "address": "5 rue Houradeys 40350 POUILLON",
  "email": "adourechec@gmail.com",
  "website": "",
  "coordinates": [
    43.594129,
    -1.008574
  ]
},
{
  "_id": {
    "$oid": "690586c9e06ce80de6cd738d"
  },
  "name": "La Prise en Passant Montoirienne",
  "url": "http://www.echecs.asso.fr/FicheClub.aspx?Ref=483",
  "address": "Mairie de Montoire 18 place Clemenceau 41800 MONTOIRE SUR LE LOIR",
  "email": "a.marchal41@free.fr",
  "website": "",
  "coordinates": [
    47.7525695,
    0.8624434999999999
  ]
},
{
  "_id": {
    "$oid": "690586c9e06ce80de6cd7396"
  },
  "name": "Club Echecs Stephanois",
  "url": "http://www.echecs.asso.fr/FicheClub.aspx?Ref=3344",
  "address": "Centre Social A. Sisley 19 rue Alfred Sisley 42100 ST ETIENNE",
  "email": "contact@clubechecsstephanois.fr",
  "website": "https://clubechecsstephanois.fr",
  "coordinates": [
    45.4243854,
    4.417864499999999
  ]
},
{
  "_id": {
    "$oid": "690586c9e06ce80de6cd7397"
  },
  "name": "MJC Club d'Echecs du Forez",
  "url": "http://www.echecs.asso.fr/FicheClub.aspx?Ref=1679",
  "address": "M.J.C. pole Culturel place Jean gapiand 42170 ST JUST ST RAMBERT",
  "email": "francois.trottet@sfr.fr",
  "website": "",
  "coordinates": [
    45.5068229,
    4.2631555
  ]
},
{
  "_id": {
    "$oid": "690586c9e06ce80de6cd7398"
  },
  "name": "Cercle d'Echecs Brivadois",
  "url": "http://www.echecs.asso.fr/FicheClub.aspx?Ref=3418",
  "address": "3 impasse du Colombier lugeac 43100 LAVAUDIEU",
  "email": "cercle_echecs.brioude@yahoo.com",
  "website": "",
  "coordinates": [
    45.2698662,
    3.4664858
  ]
},
{
  "_id": {
    "$oid": "690586c9e06ce80de6cd739c"
  },
  "name": "Carquefou Echecs",
  "url": "http://www.echecs.asso.fr/FicheClub.aspx?Ref=1717",
  "address": "8 rue du Fleuve Amour 44470 CARQUEFOU",
  "email": "dominique.pellat@gmail.com",
  "website": "http://carquefou-echecs.fr/",
  "coordinates": [
    47.3065626,
    -1.4964893
  ]
},
{
  "_id": {
    "$oid": "690586c9e06ce80de6cd739d"
  },
  "name": "Cercle d'Echecs Castelbriantais",
  "url": "http://www.echecs.asso.fr/FicheClub.aspx?Ref=1429",
  "address": "Chez Mr Prodhomme Dominique 2 rue Paul Cezanne 44110 - Chateaubriant 44110 CHATEAUBRIANT",
  "email": "d.prodhomme@wanadoo.fr",
  "website": "http://chtbechecs.legtux.org",
  "coordinates": [
    47.7317608,
    -1.3795368
  ]
},
{
  "_id": {
    "$oid": "690586c9e06ce80de6cd73a4"
  },
  "name": "Cercle d'Echecs de Machecoul",
  "url": "http://www.echecs.asso.fr/FicheClub.aspx?Ref=1881",
  "address": "Cercle d'Echecs service Culture Vie Associative rue de la Taillee 44270 MACHECOUL",
  "email": "marquet.dan@orange.fr",
  "website": "https://echecs-machecoul.fr",
  "coordinates": [
    46.9942011,
    -1.8259271
  ]
},
{
  "_id": {
    "$oid": "690586c9e06ce80de6cd73aa"
  },
  "name": "Echiquier Nazairien",
  "url": "http://www.echecs.asso.fr/FicheClub.aspx?Ref=1487",
  "address": "Chez Jean-Baptiste Bouchet 74 avenue de St Nazaire 44600 ST NAZAIRE",
  "email": "jeanbaptiste2211@wanadoo.fr",
  "website": "https://www.echiquier-nazairien.com/",
  "coordinates": [
    47.2469655,
    -2.277398100000001
  ]
},
{
  "_id": {
    "$oid": "690586c9e06ce80de6cd73b0"
  },
  "name": "MJC Chécy",
  "url": "http://www.echecs.asso.fr/FicheClub.aspx?Ref=456",
  "address": "7 place Francois Mitterrand 45430 CHECY",
  "email": "mjc.checy@gmail.com",
  "website": "http://mjc-checy.fr/echecs",
  "coordinates": [
    47.8922901,
    2.0247357
  ]
},
{
  "_id": {
    "$oid": "690586c9e06ce80de6cd73b9"
  },
  "name": "Echiquier Bourian de Gourdon",
  "url": "http://www.echecs.asso.fr/FicheClub.aspx?Ref=3318",
  "address": "4 place Noel Poujade 46300 GOURDON",
  "email": "ebgourdon@gmail.com",
  "website": "",
  "coordinates": [
    44.7409654,
    1.4896159
  ]
},
{
  "_id": {
    "$oid": "690586c9e06ce80de6cd73bd"
  },
  "name": "Echiquier Agenais",
  "url": "http://www.echecs.asso.fr/FicheClub.aspx?Ref=96",
  "address": "3 rue de l'Ecole Vieille 47000 AGEN",
  "email": "info@echiquier-agenais.fr",
  "website": "http://echiquier-agenais.fr",
  "coordinates": [
    44.2034305,
    0.6211692999999999
  ]
},
{
  "_id": {
    "$oid": "690586c9e06ce80de6cd73c4"
  },
  "name": "Echiquier de Villereal",
  "url": "http://www.echecs.asso.fr/FicheClub.aspx?Ref=3392",
  "address": "Mairie bourg 47210 VILLEREAL",
  "email": "echiquierdevillereal@gmail.com",
  "website": "",
  "coordinates": [
    44.659124,
    0.8148604
  ]
},
{
  "_id": {
    "$oid": "690586c9e06ce80de6cd73c7"
  },
  "name": "L'Echiquier Angevin",
  "url": "http://www.echecs.asso.fr/FicheClub.aspx?Ref=1423",
  "address": "106-110 rue du Pre-Pigeon 49100 ANGERS",
  "email": "echiquier.angevin.49@gmail.com",
  "website": "https://www.echiquierangevin.com/",
  "coordinates": [
    47.4755764,
    -0.5369978
  ]
},
{
  "_id": {
    "$oid": "690586c9e06ce80de6cd73c9"
  },
  "name": "Cercle d'Echecs de Cholet",
  "url": "http://www.echecs.asso.fr/FicheClub.aspx?Ref=1433",
  "address": "Centre Social Pasteur 1 rue du Docteur Emile Maillard 49300 CHOLET",
  "email": "echecs.cholet@gmail.com",
  "website": "https://cercle-d-echecs-de-cholet.kalisport.com/",
  "coordinates": [
    47.06239739999999,
    -0.8937740999999999
  ]
},
{
  "_id": {
    "$oid": "690586c9e06ce80de6cd73cd"
  },
  "name": "Trelaze Echiquier Club",
  "url": "http://www.echecs.asso.fr/FicheClub.aspx?Ref=3248",
  "address": "51 rue Hippolyte Gaussuron 49800 TRELAZE",
  "email": "trelaze.echiquierclub@gmail.com",
  "website": "https://trelaze-echiquier-club.sportsregions.fr",
  "coordinates": [
    47.4442742,
    -0.4934018
  ]
},
{
  "_id": {
    "$oid": "690586c9e06ce80de6cd73d1"
  },
  "name": "L'Echiquier du Roc - Pays Granvillais",
  "url": "http://www.echecs.asso.fr/FicheClub.aspx?Ref=199",
  "address": "Centre Social l'Agora 361 rue Saint Nicolas 50400 GRANVILLE",
  "email": "echiquier-du-roc@laposte.net",
  "website": "https://echiquierduroc.blogspot.com/",
  "coordinates": [
    48.8328473,
    -1.5681292
  ]
},
{
  "_id": {
    "$oid": "690586c9e06ce80de6cd73d4"
  },
  "name": "L'Echiquier Châlonnais",
  "url": "http://www.echecs.asso.fr/FicheClub.aspx?Ref=401",
  "address": "Pole Henri Dunant 1 rue du Docteur Calmette 51000 CHALONS EN CHAMPAGNE",
  "email": "contact@lechiquier-chalonnais.com",
  "website": "http://www.lechiquier-chalonnais.com",
  "coordinates": [
    48.9486841,
    4.341988000000001
  ]
},
{
  "_id": {
    "$oid": "690586c9e06ce80de6cd73d7"
  },
  "name": "Reims Echec et Mat",
  "url": "http://www.echecs.asso.fr/FicheClub.aspx?Ref=422",
  "address": "32 rue Ledru Rollin 51100 REIMS",
  "email": "reimsechecetmat@wanadoo.fr",
  "website": "http://www.reimsechecetmat.com",
  "coordinates": [
    49.2396729,
    4.032877399999999
  ]
},
{
  "_id": {
    "$oid": "690586c9e06ce80de6cd73d9"
  },
  "name": "Echiquier Nord Haut-Marnais",
  "url": "http://www.echecs.asso.fr/FicheClub.aspx?Ref=426",
  "address": "Club Leo Lagrange 10 avenue de la Republique 52100 ST DIZIER",
  "email": "dominique_viard@orange.fr",
  "website": "https://www.leolagrange-stdizier.fr/",
  "coordinates": [
    48.6374094,
    4.946306600000001
  ]
},
{
  "_id": {
    "$oid": "690586c9e06ce80de6cd73dd"
  },
  "name": "Cercle d'Echecs de Laval Hilard",
  "url": "http://www.echecs.asso.fr/FicheClub.aspx?Ref=1458",
  "address": "Chez Monsieur le Secretaire 14 rue de Bel Air 53000 LAVAL",
  "email": "laval.echecs53@gmail.com",
  "website": "https://lavalechecs53.fr/",
  "coordinates": [
    48.0725461,
    -0.7740807
  ]
},
{
  "_id": {
    "$oid": "690586c9e06ce80de6cd73e0"
  },
  "name": "La Cavaliere de Lorraine",
  "url": "http://www.echecs.asso.fr/FicheClub.aspx?Ref=3052",
  "address": "235 rue Victor Hugo 54200 BRULEY",
  "email": "michael.garnier@orange.fr",
  "website": "https://www.facebook.com/lacavalieredelorraine/?locale=fr_FR",
  "coordinates": [
    48.70899499999999,
    5.852062699999999
  ]
},
{
  "_id": {
    "$oid": "690586c9e06ce80de6cd73e5"
  },
  "name": "Pont-A-Mousson",
  "url": "http://www.echecs.asso.fr/FicheClub.aspx?Ref=1145",
  "address": "Centre Culturel des Premontres rue St-Martin 54700 PONT A MOUSSON",
  "email": "domtraskos@gmail.com",
  "website": "",
  "coordinates": [
    48.9078223,
    6.0567378
  ]
},
{
  "_id": {
    "$oid": "690586c9e06ce80de6cd73e7"
  },
  "name": "Les Fous du Banban",
  "url": "http://www.echecs.asso.fr/FicheClub.aspx?Ref=3368",
  "address": "Mairie de Rosieres aux Salines 15 rue Gambetta 54110 ROSIERES AUX SALINES",
  "email": "cuerq.thomas@gmail.com",
  "website": "https://www.les-roseaux-de-sel.fr/page/2883285-jeu-d-echecs",
  "coordinates": [
    48.59536749999999,
    6.3328966
  ]
},
{
  "_id": {
    "$oid": "690586c9e06ce80de6cd73f6"
  },
  "name": "Echiquier Quévenois",
  "url": "http://www.echecs.asso.fr/FicheClub.aspx?Ref=259",
  "address": "Espace Saint Eloi rue Professeur Lote 56530 QUEVEN",
  "email": "echecsqueven@gmail.com",
  "website": "https://echiquierquevenois.blogspot.com/",
  "coordinates": [
    47.7867592,
    -3.4148819
  ]
},
{
  "_id": {
    "$oid": "690586c9e06ce80de6cd73f7"
  },
  "name": "Les Fous du Roque",
  "url": "http://www.echecs.asso.fr/FicheClub.aspx?Ref=3193",
  "address": "Mairie place de l'Eglise 56350 RIEUX",
  "email": "fousduroque@gmail.com",
  "website": "",
  "coordinates": [
    47.5980723,
    -2.1078625
  ]
},
{
  "_id": {
    "$oid": "690586c9e06ce80de6cd73f8"
  },
  "name": "Echiquier St Guyomard La Dame Blanche",
  "url": "http://www.echecs.asso.fr/FicheClub.aspx?Ref=2268",
  "address": "Salle des Associations le Bignon 56460 ST GUYOMARD",
  "email": "lionelchristelle@orange.fr",
  "website": "",
  "coordinates": [
    47.77666500000001,
    -2.483662
  ]
},
{
  "_id": {
    "$oid": "690586c9e06ce80de6cd7406"
  },
  "name": "Ecole Française d'Echecs de Metz",
  "url": "http://www.echecs.asso.fr/FicheClub.aspx?Ref=2126",
  "address": "Annexe du Centre Culturel metz Queuleu 40 rue des Trois Eveches 57070 METZ",
  "email": "efemetz57@gmail.com",
  "website": "http://efe-metz.fr",
  "coordinates": [
    49.1068157,
    6.1912988
  ]
},
{
  "_id": {
    "$oid": "690586c9e06ce80de6cd7407"
  },
  "name": "Metz Benko Echecs et Développement",
  "url": "http://www.echecs.asso.fr/FicheClub.aspx?Ref=3160",
  "address": "19 rue du Sablon 57000 METZ",
  "email": "metz.benko@gmail.com",
  "website": "https://www.metzbenko.fr/",
  "coordinates": [
    49.1074874,
    6.1715715
  ]
},
{
  "_id": {
    "$oid": "690586c9e06ce80de6cd740c"
  },
  "name": "Thionville Echecs",
  "url": "http://www.echecs.asso.fr/FicheClub.aspx?Ref=1154",
  "address": "3 rue du Cygne 57000 THIONVILLE",
  "email": "thionvilleechecs@gmail.com",
  "website": "https://thionville-echecs.fr/",
  "coordinates": [
    49.3575102,
    6.1639323
  ]
},
{
  "_id": {
    "$oid": "690586c9e06ce80de6cd7412"
  },
  "name": "La Tour du Chaufour",
  "url": "http://www.echecs.asso.fr/FicheClub.aspx?Ref=1297",
  "address": "Ecole Louise Michel place Suzanne Lanoy 59165 AUBERCHICOURT",
  "email": "",
  "website": "http://latourduchaufour.free.fr",
  "coordinates": [
    50.3313527,
    3.2343752
  ]
},
{
  "_id": {
    "$oid": "690586c9e06ce80de6cd7416"
  },
  "name": "L'Echiquier Cappellois",
  "url": "http://www.echecs.asso.fr/FicheClub.aspx?Ref=1313",
  "address": "Palais des Arts et des Loisirs place Bernard Gouvart 59180 CAPPELLE LA GRANDE",
  "email": "secretariat.cappelle@gmail.com",
  "website": "https://www.cappelle-chess.fr",
  "coordinates": [
    50.9970436,
    2.3652945
  ]
},
{
  "_id": {
    "$oid": "690586c9e06ce80de6cd7417"
  },
  "name": "La Tour des Dames - CE de Douai",
  "url": "http://www.echecs.asso.fr/FicheClub.aspx?Ref=1318",
  "address": "Mr Francis France 171 rue du Marais 59169 FERIN",
  "email": "latourdesdames59500@free.fr",
  "website": "http://latourdesdames59500.free.fr",
  "coordinates": [
    50.32262799999999,
    3.0728873
  ]
},
{
  "_id": {
    "$oid": "690586c9e06ce80de6cd741b"
  },
  "name": "Fenain et Hornaing Echecs",
  "url": "http://www.echecs.asso.fr/FicheClub.aspx?Ref=1708",
  "address": "Mairie de Fenain place des Fusilles 59179 FENAIN",
  "email": "",
  "website": "",
  "coordinates": [
    50.3659268,
    3.3012441
  ]
},
{
  "_id": {
    "$oid": "690586c9e06ce80de6cd741d"
  },
  "name": "Le Coin de L'echiquier Grande Synthe",
  "url": "http://www.echecs.asso.fr/FicheClub.aspx?Ref=1370",
  "address": "Olympique Grande Synthe le Coin de l'Echiquier 10 rue Fleming 06-32-96-83-06 59760 GRANDE SYNTHE",
  "email": "marc.ganty@cegetel.net",
  "website": "https://ogs-echiquier.fr/",
  "coordinates": [
    51.0085151,
    2.2866448
  ]
},
{
  "_id": {
    "$oid": "690586c9e06ce80de6cd7425"
  },
  "name": "Club d'Echecs des Halles de Wazemmes",
  "url": "http://www.echecs.asso.fr/FicheClub.aspx?Ref=3339",
  "address": "100 rue d'Esquermes - Appt 12 59000 LILLE",
  "email": "bernard.bourgain@outlook.fr",
  "website": "",
  "coordinates": [
    50.62291390000001,
    3.040959
  ]
},
{
  "_id": {
    "$oid": "690586c9e06ce80de6cd742b"
  },
  "name": "Saint André - Echec et Mat",
  "url": "http://www.echecs.asso.fr/FicheClub.aspx?Ref=1367",
  "address": "15 rue du 08 Mai 1945 59350 ST ANDRE LEZ LILLE",
  "email": "blastter@hotmail.fr",
  "website": "https://saintandreechecetmat.wordpress.com/",
  "coordinates": [
    50.660979,
    3.047736
  ]
},
{
  "_id": {
    "$oid": "690586c9e06ce80de6cd742c"
  },
  "name": "Echecs Socx Loisirs",
  "url": "http://www.echecs.asso.fr/FicheClub.aspx?Ref=3257",
  "address": "Mairie de Socx 24 route de St Omer 59380 SOCX",
  "email": "dureuxb984@gmail.com",
  "website": "facebook echecs socx loisirs",
  "coordinates": [
    50.9358167,
    2.4233622
  ]
},
{
  "_id": {
    "$oid": "690586c9e06ce80de6cd736a"
  },
  "name": "Les Ambassadeurs du Roi - Chenonceaux",
  "url": "http://www.echecs.asso.fr/FicheClub.aspx?Ref=2162",
  "address": "Mairie 1 rue de l'Ecole 37150 CIVRAY DE TOURAINE",
  "email": "patrick.hornet@wanadoo.fr",
  "website": "http://echec-ambassadeur-du-roi.over-blog.com/",
  "coordinates": [
    47.1456925,
    0.402539
  ]
},
{
  "_id": {
    "$oid": "690586c9e06ce80de6cd736b"
  },
  "name": "Echiquier Descartois",
  "url": "http://www.echecs.asso.fr/FicheClub.aspx?Ref=465",
  "address": "Mairie de Descartes 37160 DESCARTES",
  "email": "echecsdescartes@gmail.com",
  "website": "https://echiquierdescartois.fr/",
  "coordinates": [
    46.973484,
    0.6985545
  ]
},
{
  "_id": {
    "$oid": "690586c9e06ce80de6cd736d"
  },
  "name": "Chevau légers de la Choisille",
  "url": "http://www.echecs.asso.fr/FicheClub.aspx?Ref=2218",
  "address": "6 rue Francois Arago 37540 ST CYR SUR LOIRE",
  "email": "bignand.didier@gmail.com",
  "website": "http://saintcyrechecs.fr/",
  "coordinates": [
    47.4242993,
    0.6673579
  ]
},
{
  "_id": {
    "$oid": "690586c9e06ce80de6cd7376"
  },
  "name": "Grenoble Bayard Echecs",
  "url": "http://www.echecs.asso.fr/FicheClub.aspx?Ref=2197",
  "address": "1 rue Hauquelin 38000 GRENOBLE",
  "email": "grenoble.bayard.echecs@gmail.com",
  "website": "http://grenoblebayardechecs.free.fr",
  "coordinates": [
    45.1937817,
    5.732639499999999
  ]
},
{
  "_id": {
    "$oid": "690586c9e06ce80de6cd7381"
  },
  "name": "Le Cavalier Noir Aturin",
  "url": "http://www.echecs.asso.fr/FicheClub.aspx?Ref=3417",
  "address": "Place du General de Gaulle BP 147 Pdc 40800 AIRE SUR L ADOUR",
  "email": "fabien@lecavaliernoir.fr",
  "website": "https://lecavaliernoir.fr",
  "coordinates": [
    43.7024603,
    -0.262049
  ]
},
{
  "_id": {
    "$oid": "690586c9e06ce80de6cd7382"
  },
  "name": "Dax  Echiquier Dacquois",
  "url": "http://www.echecs.asso.fr/FicheClub.aspx?Ref=124",
  "address": "Evac 9 rue de Borda 40100 DAX",
  "email": "jlroule@outlook.com",
  "website": "https://echiquier-dacquois.assoconnect.com",
  "coordinates": [
    43.7098483,
    -1.0533797
  ]
},
{
  "_id": {
    "$oid": "690586c9e06ce80de6cd7383"
  },
  "name": "Echiquier Chalossais Hagetmau",
  "url": "http://www.echecs.asso.fr/FicheClub.aspx?Ref=3224",
  "address": "65 Chemin de Laouilleroun 40700 HAGETMAU",
  "email": "echiquierchalossais@gmail.com",
  "website": "",
  "coordinates": [
    43.6526494,
    -0.5780063999999999
  ]
},
{
  "_id": {
    "$oid": "690586c9e06ce80de6cd738e"
  },
  "name": "Echiquier Romorantinais",
  "url": "http://www.echecs.asso.fr/FicheClub.aspx?Ref=2026",
  "address": "7 rue Lucien Breitman 41200 ROMORANTIN LANTHENAY",
  "email": "g.mignard@sfr.fr",
  "website": "",
  "coordinates": [
    47.36521,
    1.7436053
  ]
},
{
  "_id": {
    "$oid": "690586c9e06ce80de6cd7390"
  },
  "name": "Echiquier du Vendômois",
  "url": "http://www.echecs.asso.fr/FicheClub.aspx?Ref=498",
  "address": "Pole Associatif Chartrain 140 Faubourg Chartrain 41100 VENDOME",
  "email": "erick.beauge@orange.fr",
  "website": "http://echiquier-vendomois.teria.fr",
  "coordinates": [
    47.7994455,
    1.0681373
  ]
},
{
  "_id": {
    "$oid": "690586c9e06ce80de6cd739e"
  },
  "name": "Geneston Sud Loire échecs",
  "url": "http://www.echecs.asso.fr/FicheClub.aspx?Ref=2844",
  "address": "6 rue des Marronniers 44140 GENESTON",
  "email": "genestonechecs@free.fr",
  "website": "https://superpleple48.wixsite.com/genestonechecs",
  "coordinates": [
    47.0564819,
    -1.5192851
  ]
},
{
  "_id": {
    "$oid": "690586c9e06ce80de6cd739f"
  },
  "name": "Club d'Echecs Gétignois",
  "url": "http://www.echecs.asso.fr/FicheClub.aspx?Ref=1452",
  "address": "35 Recouvrance 44190 GETIGNE",
  "email": "stephd44190@orange.fr",
  "website": "https://clubechecsgetignois.weebly.com",
  "coordinates": [
    47.07728240000001,
    -1.2378768
  ]
},
{
  "_id": {
    "$oid": "690586c9e06ce80de6cd73a1"
  },
  "name": "EPI Guérande",
  "url": "http://www.echecs.asso.fr/FicheClub.aspx?Ref=1454",
  "address": "16 boulevard du 19 Mars 1962 44350 GUERANDE",
  "email": "rogerta@free.fr",
  "website": "",
  "coordinates": [
    47.3343128,
    -2.4284893
  ]
},
{
  "_id": {
    "$oid": "690586c9e06ce80de6cd73a2"
  },
  "name": "Echiquier Gavrais",
  "url": "http://www.echecs.asso.fr/FicheClub.aspx?Ref=3387",
  "address": "8 rue de l'Eglise 44130 LE GAVRE",
  "email": "echiquier.gavrais@gmail.com",
  "website": "",
  "coordinates": [
    47.51981910000001,
    -1.7474145
  ]
},
{
  "_id": {
    "$oid": "690586c9e06ce80de6cd73a5"
  },
  "name": "Cercle d'Echecs de Nantes",
  "url": "http://www.echecs.asso.fr/FicheClub.aspx?Ref=1468",
  "address": "39 rue Felix Thomas 44000 NANTES",
  "email": "cenantes44@gmail.com",
  "website": "http://www.cercle-echecs-nantes.org/",
  "coordinates": [
    47.2313756,
    -1.5526584
  ]
},
{
  "_id": {
    "$oid": "690586c9e06ce80de6cd73a6"
  },
  "name": "Knight Club",
  "url": "http://www.echecs.asso.fr/FicheClub.aspx?Ref=3434",
  "address": "6 rue des 7 Maires Charette 44100 NANTES",
  "email": "knightclub.chess@gmail.com",
  "website": "https://knightclubbers.com/knightclub",
  "coordinates": [
    47.219276,
    -1.5796389
  ]
},
{
  "_id": {
    "$oid": "690586c9e06ce80de6cd73ae"
  },
  "name": "Club d'Echecs de Vertou",
  "url": "http://www.echecs.asso.fr/FicheClub.aspx?Ref=1879",
  "address": "Chez Laurent Guilbaud 28 rue de la Douettee 44120 VERTOU",
  "email": "gohier.adrien1542@gmail.com",
  "website": "http://clubechecsvertou.wordpress.com",
  "coordinates": [
    47.16310379999999,
    -1.4689788
  ]
},
{
  "_id": {
    "$oid": "690586c9e06ce80de6cd73af"
  },
  "name": "Echiquier du Gâtinais",
  "url": "http://www.echecs.asso.fr/FicheClub.aspx?Ref=482",
  "address": "160 rue des Castelets 45200 AMILLY",
  "email": "vincent.normand5@gmail.com",
  "website": "http://www.echiquierdugatinais.fr/",
  "coordinates": [
    47.9960939,
    2.7677758
  ]
},
{
  "_id": {
    "$oid": "690586c9e06ce80de6cd73b3"
  },
  "name": "CE St Pryve-Olivet - La Tour Prends Garde",
  "url": "http://www.echecs.asso.fr/FicheClub.aspx?Ref=496",
  "address": "La Tour Prends Garde 3 rue d'Ivoy 45160 OLIVET",
  "email": "ltpg@orange.fr",
  "website": "https://www.ltpg.fr",
  "coordinates": [
    47.8700233,
    1.897157
  ]
},
{
  "_id": {
    "$oid": "690586c9e06ce80de6cd73bb"
  },
  "name": "Echiquier de la Basse Vallée du Lot",
  "url": "http://www.echecs.asso.fr/FicheClub.aspx?Ref=1268",
  "address": "Mairie place d'Istrie 46220 PRAYSSAC",
  "email": "denis.nouvel@orange.fr",
  "website": "",
  "coordinates": [
    44.5037629,
    1.1887107
  ]
},
{
  "_id": {
    "$oid": "690586c9e06ce80de6cd73be"
  },
  "name": "Foulayronnes Echecs",
  "url": "http://www.echecs.asso.fr/FicheClub.aspx?Ref=3158",
  "address": "Mairie rue des Anciens Combattants 47510 FOULAYRONNES",
  "email": "foulayronnes.echecs@gmail.com",
  "website": "https://www.foulayronnes-echecs.com",
  "coordinates": [
    44.2381347,
    0.646184
  ]
},
{
  "_id": {
    "$oid": "690586c9e06ce80de6cd73bf"
  },
  "name": "Les Echecs en Passant - CE du Passage d'Agen",
  "url": "http://www.echecs.asso.fr/FicheClub.aspx?Ref=3226",
  "address": "12 rue Georges Guynemer 47520 LE PASSAGE",
  "email": "lesechecsenpassant@gmail.com",
  "website": "",
  "coordinates": [
    44.1998655,
    0.5934634999999999
  ]
},
{
  "_id": {
    "$oid": "690586c9e06ce80de6cd73d3"
  },
  "name": "Saint Hilaire Petitville",
  "url": "http://www.echecs.asso.fr/FicheClub.aspx?Ref=218",
  "address": "Salle de l'Amicale 3 rue d'Isigny saint-Hilaire-Petitville 50500 CARENTAN LES MARAIS",
  "email": "michel.duval27@orange.fr",
  "website": "",
  "coordinates": [
    49.3030857,
    -1.2284005
  ]
},
{
  "_id": {
    "$oid": "690586c9e06ce80de6cd73d5"
  },
  "name": "Epernay64",
  "url": "http://www.echecs.asso.fr/FicheClub.aspx?Ref=412",
  "address": "Espace Paul Bert 10 avenue Paul Bert 51200 EPERNAY",
  "email": "Epernay64@hotmail.com",
  "website": "",
  "coordinates": [
    49.0319833,
    3.9506529
  ]
},
{
  "_id": {
    "$oid": "690586c9e06ce80de6cd73da"
  },
  "name": "Les Fous du Roi",
  "url": "http://www.echecs.asso.fr/FicheClub.aspx?Ref=2417",
  "address": "Mairie 25 rue du Maine 53960 BONCHAMP LES LAVAL",
  "email": "esblesfousduroi@gmail.com",
  "website": "http://www.es-bonchamp.com/fousduroi",
  "coordinates": [
    48.0736059,
    -0.6999253
  ]
},
{
  "_id": {
    "$oid": "690586c9e06ce80de6cd73db"
  },
  "name": "La Cavale du Fou",
  "url": "http://www.echecs.asso.fr/FicheClub.aspx?Ref=1430",
  "address": "8 rue Jean-Sylvain Fouassier 53200 CHATEAU GONTIER",
  "email": "chateau.gontier.echecs@gmail.com",
  "website": "https://chateau-gontier-echecs.com",
  "coordinates": [
    47.8278443,
    -0.7072897
  ]
},
{
  "_id": {
    "$oid": "690586c9e06ce80de6cd73dc"
  },
  "name": "Echiquier Coevronnais",
  "url": "http://www.echecs.asso.fr/FicheClub.aspx?Ref=2657",
  "address": "Chez Olivier Durfort 61 rue de Sainte Suzanne 53600 EVRON",
  "email": "olivier.durfort@orange.fr",
  "website": "http://echiquier-coevronnais.jimdo.com/",
  "coordinates": [
    48.1476931,
    -0.3932434
  ]
},
{
  "_id": {
    "$oid": "690586c9e06ce80de6cd73e9"
  },
  "name": "Seichamps Échecs",
  "url": "http://www.echecs.asso.fr/FicheClub.aspx?Ref=2488",
  "address": "54280 SEICHAMPS",
  "email": "seichamps.echecs@outlook.fr",
  "website": "https://seichampsechecs.blogspot.com/",
  "coordinates": [
    48.7152533,
    6.2597943
  ]
},
{
  "_id": {
    "$oid": "690586c9e06ce80de6cd73ed"
  },
  "name": "Echiquier de l'ABC Pays de Vannes",
  "url": "http://www.echecs.asso.fr/FicheClub.aspx?Ref=224",
  "address": "Mairie 56610 Arradon 56610 ARRADON",
  "email": "abcvannes56@orange.fr",
  "website": "http://abcvannes-echecs.fr/",
  "coordinates": [
    47.6404686,
    -2.8208035
  ]
},
{
  "_id": {
    "$oid": "690586c9e06ce80de6cd73f0"
  },
  "name": "Erdeven Echecs",
  "url": "http://www.echecs.asso.fr/FicheClub.aspx?Ref=3439",
  "address": "5 rue des Gravelots 56410 ERDEVEN",
  "email": "erdeven.echecs@gmail.com",
  "website": "",
  "coordinates": [
    47.63196869999999,
    -3.1482501
  ]
},
{
  "_id": {
    "$oid": "690586c9e06ce80de6cd73f2"
  },
  "name": "Club d'Echecs de Languidic",
  "url": "http://www.echecs.asso.fr/FicheClub.aspx?Ref=2071",
  "address": "Ecole Publique rue St Aubin 56440 LANGUIDIC",
  "email": "bcce.purenne@wanadoo.fr",
  "website": "",
  "coordinates": [
    47.8312251,
    -3.1535267
  ]
},
{
  "_id": {
    "$oid": "690586c9e06ce80de6cd73f4"
  },
  "name": "Echiquier club de Pontivy",
  "url": "http://www.echecs.asso.fr/FicheClub.aspx?Ref=2926",
  "address": "12 rue des Digitales 56300 PONTIVY",
  "email": "echecspontivy@gmail.com",
  "website": "http://echiquierpontivy.sportsregions.fr/",
  "coordinates": [
    48.08294799999999,
    -2.96218
  ]
},
{
  "_id": {
    "$oid": "690586c9e06ce80de6cd73fc"
  },
  "name": "Cercle d'Echecs de Creutzwald",
  "url": "http://www.echecs.asso.fr/FicheClub.aspx?Ref=1106",
  "address": "Foyer Social 9 rue de Bourgogne 57150 CREUTZWALD",
  "email": "",
  "website": "http://cercleechecscreutzwald.fr",
  "coordinates": [
    49.1946925,
    6.665464099999999
  ]
},
{
  "_id": {
    "$oid": "690586c9e06ce80de6cd7401"
  },
  "name": "Echiquier Mosellan - L'Hopital",
  "url": "http://www.echecs.asso.fr/FicheClub.aspx?Ref=1130",
  "address": "Bat A. Mutz 15 rue Nassau 57490 L HOPITAL",
  "email": "martial.chudy@wanadoo.fr",
  "website": "",
  "coordinates": [
    49.1622877,
    6.737025099999999
  ]
},
{
  "_id": {
    "$oid": "690586c9e06ce80de6cd7403"
  },
  "name": "M-S Echecs",
  "url": "http://www.echecs.asso.fr/FicheClub.aspx?Ref=2643",
  "address": "8 rue des Aulnes 57535 MARANGE SILVANGE",
  "email": "Msechecs@gmail.com",
  "website": "http://m-sechecs.blogspot.com",
  "coordinates": [
    49.22243049999999,
    6.1277178
  ]
},
{
  "_id": {
    "$oid": "690586c9e06ce80de6cd7405"
  },
  "name": "A.S.P.T.T. Metz",
  "url": "http://www.echecs.asso.fr/FicheClub.aspx?Ref=1139",
  "address": "1 rue des Hauts Peupliers 57070 METZ",
  "email": "christianymarco@wanadoo.fr",
  "website": "http://aspttechecs.free.fr",
  "coordinates": [
    49.1073304,
    6.2043988
  ]
},
{
  "_id": {
    "$oid": "690586c9e06ce80de6cd7409"
  },
  "name": "Les 4 Chemins Rosselange",
  "url": "http://www.echecs.asso.fr/FicheClub.aspx?Ref=1662",
  "address": "Centre Socio Culturel guerin Petremont grand rue 57780 ROSSELANGE",
  "email": "gilles.oberti1950@gmail.com",
  "website": "",
  "coordinates": [
    49.2556745,
    6.0645362
  ]
},
{
  "_id": {
    "$oid": "690586c9e06ce80de6cd740b"
  },
  "name": "Club d'Echecs Stiring-Wendel",
  "url": "http://www.echecs.asso.fr/FicheClub.aspx?Ref=1153",
  "address": "Foyer Socio-Culturel du Habsterdick 6 rue Pierre Curie 57600",
  "email": "smacieri@gmail.com",
  "website": "",
  "coordinates": [
    49.2074027,
    6.9466056
  ]
},
{
  "_id": {
    "$oid": "690586c9e06ce80de6cd740e"
  },
  "name": "Tressange  Pays-Haut",
  "url": "http://www.echecs.asso.fr/FicheClub.aspx?Ref=1155",
  "address": "1 rue Jean et Julien Noirel 57710 TRESSANGE",
  "email": "bernard.leclerc@etph57.net",
  "website": "http://www.etph57.net/",
  "coordinates": [
    49.4010911,
    5.9794423
  ]
},
{
  "_id": {
    "$oid": "690586c9e06ce80de6cd7414"
  },
  "name": "Bondues Echecs",
  "url": "http://www.echecs.asso.fr/FicheClub.aspx?Ref=3304",
  "address": "Mairie de Bondues 16 place de l'Abbe Bonpain 59910 BONDUES",
  "email": "jean.michel.lebret@gmail.com",
  "website": "https://www.facebook.com/BonduesEchecs",
  "coordinates": [
    50.7032619,
    3.0920996
  ]
},
{
  "_id": {
    "$oid": "690586c9e06ce80de6cd7415"
  },
  "name": "Cambrai - Echecs",
  "url": "http://www.echecs.asso.fr/FicheClub.aspx?Ref=1310",
  "address": "1 rue du Temple 59400 CAMBRAI",
  "email": "jmarcdevaux@free.fr",
  "website": "https://cambrai-echecs.com/",
  "coordinates": [
    50.17530920000001,
    3.2291441
  ]
},
{
  "_id": {
    "$oid": "690586c9e06ce80de6cd741c"
  },
  "name": "Cercle d'Echecs de Fournes en Weppes",
  "url": "http://www.echecs.asso.fr/FicheClub.aspx?Ref=1327",
  "address": "84 rue Jean Jaures 59184 SAINGHIN EN WEPPES",
  "email": "echecs.few@gmail.com",
  "website": "https://sites.google.com/view/club-echecs-few",
  "coordinates": [
    50.5552991,
    2.9126857
  ]
},
{
  "_id": {
    "$oid": "690586c9e06ce80de6cd7423"
  },
  "name": "Lille Université Club Echiquier du Nord",
  "url": "http://www.echecs.asso.fr/FicheClub.aspx?Ref=1345",
  "address": "180 Av Gaston Berger 59000 LILLE",
  "email": "bureau@lucedn.fr",
  "website": "http://www.lucedn.fr/",
  "coordinates": [
    50.6146322,
    3.0821426
  ]
},
{
  "_id": {
    "$oid": "690586c9e06ce80de6cd7426"
  },
  "name": "Cercle D'Echecs de Marcq et Lys",
  "url": "http://www.echecs.asso.fr/FicheClub.aspx?Ref=1350",
  "address": "153 bis rue de l'Abbe Bonpain 59700 MARCQ EN BAROEUL",
  "email": "echiquier.marcquois@gmail.com",
  "website": "https://echiquier-marcquois.fr/",
  "coordinates": [
    50.657062,
    3.085798
  ]
},
{
  "_id": {
    "$oid": "690586c9e06ce80de6cd7427"
  },
  "name": "Malbodium Chess Club",
  "url": "http://www.echecs.asso.fr/FicheClub.aspx?Ref=2843",
  "address": "12 Square Helene Boucher 59600 MAUBEUGE",
  "email": "malbodiumchessclub@gmail.com",
  "website": "https://www.facebook.com/malbodiumchessclub",
  "coordinates": [
    50.2852555,
    3.9883954
  ]
},
{
  "_id": {
    "$oid": "690586c9e06ce80de6cd742f"
  },
  "name": "Les Tours du Hainaut",
  "url": "http://www.echecs.asso.fr/FicheClub.aspx?Ref=3422",
  "address": "Maison de Quartier 10 rue des Ursulines 59300 VALENCIENNES",
  "email": "tours-du-hainaut@mqcv.fr",
  "website": "",
  "coordinates": [
    50.3554986,
    3.5258353
  ]
},
{
  "_id": {
    "$oid": "690586c9e06ce80de6cd723f"
  },
  "name": "Cercle d'Echecs Bressan",
  "url": "http://www.echecs.asso.fr/FicheClub.aspx?Ref=1168",
  "address": "21 rue Charles Robin 01000 BOURG EN BRESSE",
  "email": "ceb.bourg@gmail.com",
  "website": "http://www.ceb-01.fr",
  "coordinates": [
    46.205846,
    5.2303484
  ]
},
{
  "_id": {
    "$oid": "690586c9e06ce80de6cd724a"
  },
  "name": "La Petite \"A\" - Chateau-Thierry",
  "url": "http://www.echecs.asso.fr/FicheClub.aspx?Ref=1502",
  "address": "11 bis rue de Fere 02400 CHATEAU THIERRY",
  "email": "echecs.lapetitea@gmail.com",
  "website": "http://petitea.free.fr",
  "coordinates": [
    49.0472538,
    3.3997579
  ]
},
{
  "_id": {
    "$oid": "690586c9e06ce80de6cd724c"
  },
  "name": "La Fere  A.D.E.L.",
  "url": "http://www.echecs.asso.fr/FicheClub.aspx?Ref=1506",
  "address": "108 avenue du General Leclerc 02800 LA FERE",
  "email": "quentindecotte@gmail.com",
  "website": "http://sites.google.com/site/echecslafere/",
  "coordinates": [
    49.6596947,
    3.3803557
  ]
},
{
  "_id": {
    "$oid": "690586c9e06ce80de6cd724d"
  },
  "name": "Le Roque de Laon",
  "url": "http://www.echecs.asso.fr/FicheClub.aspx?Ref=3412",
  "address": "Mairie place du General Leclerc 02000 LAON",
  "email": "v.homerin59@gmail.com",
  "website": "Facebook Le Roque de Laon Echecs",
  "coordinates": [
    49.5649326,
    3.620924
  ]
},
{
  "_id": {
    "$oid": "690586c9e06ce80de6cd7251"
  },
  "name": "Echiquier Soissonnais",
  "url": "http://www.echecs.asso.fr/FicheClub.aspx?Ref=1520",
  "address": "9 rue Principale 02320 ALLEMANT",
  "email": "jer1700@yahoo.fr",
  "website": "http://www.echiquier-soissonnais.fr",
  "coordinates": [
    49.4582961,
    3.4493477
  ]
},
{
  "_id": {
    "$oid": "690586c9e06ce80de6cd7256"
  },
  "name": "Cercle des Echecs de Vichy",
  "url": "http://www.echecs.asso.fr/FicheClub.aspx?Ref=178",
  "address": "Maison des Associations place de l'Hotel de Ville 03200 VICHY",
  "email": "cedv03@gmail.com",
  "website": "http://www.echecsvichy.fr",
  "coordinates": [
    46.1245412,
    3.427096
  ]
},
{
  "_id": {
    "$oid": "690586c9e06ce80de6cd7257"
  },
  "name": "Yzeure Echecs",
  "url": "http://www.echecs.asso.fr/FicheClub.aspx?Ref=3134",
  "address": "4 rue du Champ Formager 03400 YZEURE",
  "email": "yzeure.echecs@gmail.com",
  "website": "https://yzeureechecs.wixsite.com/website",
  "coordinates": [
    46.5562804,
    3.3363665
  ]
},
{
  "_id": {
    "$oid": "690586c9e06ce80de6cd7259"
  },
  "name": "Echecs en Luberon",
  "url": "http://www.echecs.asso.fr/FicheClub.aspx?Ref=3262",
  "address": "4 rue St Mary 04300 FORCALQUIER",
  "email": "echecsenluberon@gmail.com",
  "website": "https://www.echecsenluberon.fr/",
  "coordinates": [
    43.958532,
    5.781779999999999
  ]
},
{
  "_id": {
    "$oid": "690586c9e06ce80de6cd725c"
  },
  "name": "Echiquier Haut Alpin de Gap",
  "url": "http://www.echecs.asso.fr/FicheClub.aspx?Ref=1569",
  "address": "Chez Cdos 140 bd Georges Pompidou 05000 GAP",
  "email": "gapechecs@gmail.com",
  "website": "https://www.gapechecs.fr/",
  "coordinates": [
    44.5557719,
    6.0778661
  ]
},
{
  "_id": {
    "$oid": "690586c9e06ce80de6cd7263"
  },
  "name": "Echiquier Mentonnais",
  "url": "http://www.echecs.asso.fr/FicheClub.aspx?Ref=351",
  "address": "10 Val de Menton 06500 MENTON",
  "email": "",
  "website": "https://www.echiquier-mentonnais.fr",
  "coordinates": [
    43.7770028,
    7.504844599999999
  ]
},
{
  "_id": {
    "$oid": "690586c9e06ce80de6cd7264"
  },
  "name": "C.E.M.C. Monaco",
  "url": "http://www.echecs.asso.fr/FicheClub.aspx?Ref=353",
  "address": "5 rue des Oliviers 98000 MONACO",
  "email": "cemc@libello.com",
  "website": "https://www.monaco-echecs.mc",
  "coordinates": [
    43.7428681,
    7.4291682
  ]
},
{
  "_id": {
    "$oid": "690586c9e06ce80de6cd7266"
  },
  "name": "Echiquier Niçois",
  "url": "http://www.echecs.asso.fr/FicheClub.aspx?Ref=362",
  "address": "Maison des Associations 9 rue Ernest Lairolle 06100 NICE",
  "email": "echiquier.nicois@gmail.com",
  "website": "https://echiquiernicois.com",
  "coordinates": [
    43.7223786,
    7.259361199999999
  ]
},
{
  "_id": {
    "$oid": "690586c9e06ce80de6cd726a"
  },
  "name": "Aubenas Vals Echiquier Cévenol",
  "url": "http://www.echecs.asso.fr/FicheClub.aspx?Ref=505",
  "address": "Centre Socio Culturel Le palabre 6 rue Albert Seibel 07200 AUBENAS",
  "email": "jean.louis.bourquard@free.fr",
  "website": "http://aubenasvals-echecs.fr",
  "coordinates": [
    44.6173697,
    4.388114
  ]
},
{
  "_id": {
    "$oid": "690586c9e06ce80de6cd726d"
  },
  "name": "La Tour D'Yvois Club Echecs Blagny",
  "url": "http://www.echecs.asso.fr/FicheClub.aspx?Ref=395",
  "address": "Place de la Mairie 08110 BLAGNY",
  "email": "marc.fourcart@wanadoo.fr",
  "website": "http://echecsblagny.free.fr",
  "coordinates": [
    49.6583169,
    5.256846
  ]
},
{
  "_id": {
    "$oid": "690586c9e06ce80de6cd7270"
  },
  "name": "Les Tours Givetoises",
  "url": "http://www.echecs.asso.fr/FicheClub.aspx?Ref=2750",
  "address": "73 boulevard Bourck 08600 GIVET",
  "email": "echecsagivet@yahoo.fr",
  "website": "",
  "coordinates": [
    50.1360307,
    4.8335555
  ]
},
{
  "_id": {
    "$oid": "690586c9e06ce80de6cd7273"
  },
  "name": "CE de Vouziers et de l'Argonne Ardennaise",
  "url": "http://www.echecs.asso.fr/FicheClub.aspx?Ref=3058",
  "address": "Fjep 15 du Champ de Foire 08400 VOUZIERS",
  "email": "club.echecsvouziers@orange.fr",
  "website": "",
  "coordinates": [
    49.3996731,
    4.7004503
  ]
},
{
  "_id": {
    "$oid": "690586c9e06ce80de6cd7276"
  },
  "name": "Pamiers Echecs",
  "url": "http://www.echecs.asso.fr/FicheClub.aspx?Ref=3228",
  "address": "Villa 2 11 ter Chemin du Barriol 09100 PAMIERS",
  "email": "pamiersechecs@gmail.com",
  "website": "",
  "coordinates": [
    43.1117485,
    1.6061523
  ]
},
{
  "_id": {
    "$oid": "690586c9e06ce80de6cd7279"
  },
  "name": "Club d'Echecs Nogent sur Seine",
  "url": "http://www.echecs.asso.fr/FicheClub.aspx?Ref=3272",
  "address": "27 Grande rue St Laurent 10400 NOGENT SUR SEINE",
  "email": "echecs.nogentais@gmail.com",
  "website": "https://club-echecs-nogent-sur-seine.com",
  "coordinates": [
    48.4925462,
    3.4982193
  ]
},
{
  "_id": {
    "$oid": "690586c9e06ce80de6cd7280"
  },
  "name": "Castelnaudary Chess Club !",
  "url": "http://www.echecs.asso.fr/FicheClub.aspx?Ref=2771",
  "address": "608 Chemin d'En Touzet 11400 CASTELNAUDARY",
  "email": "castelnaudary-chess-club@lilo.org",
  "website": "https://castelnaudary-chess-club.fr/",
  "coordinates": [
    43.3046304,
    1.9330674
  ]
},
{
  "_id": {
    "$oid": "690586c9e06ce80de6cd7281"
  },
  "name": "Section Echecs MJC Coursan",
  "url": "http://www.echecs.asso.fr/FicheClub.aspx?Ref=3413",
  "address": "MJC Coursan 10 place Voltaire 11110 COURSAN",
  "email": "coursan.mjcdirection@outlook.fr",
  "website": "",
  "coordinates": [
    43.2360438,
    3.0595952
  ]
},
{
  "_id": {
    "$oid": "690586c9e06ce80de6cd728b"
  },
  "name": "L'Echiquier du Roy René",
  "url": "http://www.echecs.asso.fr/FicheClub.aspx?Ref=1529",
  "address": "Maison des Associations 1 rue Emile Tavan 13100 AIX EN PROVENCE",
  "email": "echiquier.roy.rene@gmail.com",
  "website": "http://echiquierduroyrene.org",
  "coordinates": [
    43.5300573,
    5.4417882
  ]
},
{
  "_id": {
    "$oid": "690586c9e06ce80de6cd728d"
  },
  "name": "Cercle d'Echecs Aubagnais",
  "url": "http://www.echecs.asso.fr/FicheClub.aspx?Ref=1532",
  "address": "Office des Sports immeuble Lou Galoubet 13 avenue Fallen 13400 AUBAGNE",
  "email": "aubagne.echecs@free.fr",
  "website": "http://aubagne.echecs.free.fr",
  "coordinates": [
    43.2937774,
    5.565006299999999
  ]
},
{
  "_id": {
    "$oid": "690586c9e06ce80de6cd728f"
  },
  "name": "Cassis Echecs",
  "url": "http://www.echecs.asso.fr/FicheClub.aspx?Ref=2705",
  "address": "20 avenue du Marechal Foch 13260 CASSIS",
  "email": "communication@cassisechecs.fr",
  "website": "http://cassisechecs.fr",
  "coordinates": [
    43.2189082,
    5.544817999999999
  ]
},
{
  "_id": {
    "$oid": "690586c9e06ce80de6cd7290"
  },
  "name": "Ceyreste Echecs",
  "url": "http://www.echecs.asso.fr/FicheClub.aspx?Ref=3254",
  "address": "318 Chemin de Roumagoua 13600 LA CIOTAT",
  "email": "ceyresteechecs@gmail.com",
  "website": "",
  "coordinates": [
    43.1968271,
    5.6111638
  ]
},
{
  "_id": {
    "$oid": "690586c9e06ce80de6cd729f"
  },
  "name": "Club d'Echecs de Miramas",
  "url": "http://www.echecs.asso.fr/FicheClub.aspx?Ref=1592",
  "address": "61 rue de l'Aguieloun 13140 MIRAMAS",
  "email": "frailijb@hotmail.fr",
  "website": "http://echecsmiramas.jimdo.com",
  "coordinates": [
    43.5739809,
    4.998171999999999
  ]
},
{
  "_id": {
    "$oid": "690586c9e06ce80de6cd72a2"
  },
  "name": "CE Vitrolles",
  "url": "http://www.echecs.asso.fr/FicheClub.aspx?Ref=1615",
  "address": "6 rue Pierre et Marie Curie 13127 VITROLLES",
  "email": "jean.casella@wanadoo.fr",
  "website": "https://www.mptvitrolles.fr/project/echecs/",
  "coordinates": [
    43.4364101,
    5.2585955
  ]
},
{
  "_id": {
    "$oid": "690586c9e06ce80de6cd72a6"
  },
  "name": "L'Avant Garde Deauvillaise",
  "url": "http://www.echecs.asso.fr/FicheClub.aspx?Ref=1767",
  "address": "33 rue Albert Fracasse 14800 DEAUVILLE",
  "email": "ldolley@agdeauville.fr",
  "website": "",
  "coordinates": [
    49.3580482,
    0.074696
  ]
},
{
  "_id": {
    "$oid": "690586c9e06ce80de6cd72a9"
  },
  "name": "Les Cavaliers d'Hérouville",
  "url": "http://www.echecs.asso.fr/FicheClub.aspx?Ref=3012",
  "address": "Centre Socio-Culturel Caf 202 Belles Portes 14200 HEROUVILLE ST CLAIR",
  "email": "cavaliers.herouville@gmail.com",
  "website": "http://www.cavaliers-herouville.club",
  "coordinates": [
    49.202257,
    -0.3285074
  ]
},
{
  "_id": {
    "$oid": "690586c9e06ce80de6cd72ab"
  },
  "name": "Echiquier Lexovien",
  "url": "http://www.echecs.asso.fr/FicheClub.aspx?Ref=209",
  "address": "C Bruno Tournabien 9 allee des Aubepines 14100 LISIEUX",
  "email": "contact@echecs-lisieux.fr",
  "website": "http://www.echecs-lisieux.fr",
  "coordinates": [
    49.15431150000001,
    0.252057
  ]
},
{
  "_id": {
    "$oid": "690586c9e06ce80de6cd72ac"
  },
  "name": "Echecs et Strategie a Mathieu (ESM)",
  "url": "http://www.echecs.asso.fr/FicheClub.aspx?Ref=3095",
  "address": "3 impasse des Eglantiers 14920 MATHIEU",
  "email": "canonneantoine@wanadoo.fr",
  "website": "",
  "coordinates": [
    49.259704,
    -0.377626
  ]
},
{
  "_id": {
    "$oid": "690586c9e06ce80de6cd72af"
  },
  "name": "Cercle d'Echecs Aurillacois",
  "url": "http://www.echecs.asso.fr/FicheClub.aspx?Ref=158",
  "address": "Chez Paul Mathieu 15 rue du Dr Chibert 15000 AURILLAC",
  "email": "cercleechecsaurillac15@gmail.com",
  "website": "https://cea15.fr",
  "coordinates": [
    44.93526139999999,
    2.4517286
  ]
},
{
  "_id": {
    "$oid": "690586c9e06ce80de6cd72b6"
  },
  "name": "La Rochelle Echecs",
  "url": "http://www.echecs.asso.fr/FicheClub.aspx?Ref=2487",
  "address": "Salle du Cadit 38 rue des Frenes 17000 LA ROCHELLE",
  "email": "alr.echecs@gmail.com",
  "website": "http://larochelle-echecs.fr",
  "coordinates": [
    46.1426621,
    -1.1436195
  ]
},
{
  "_id": {
    "$oid": "690586c9e06ce80de6cd72b7"
  },
  "name": "Club d'Echecs de Marennes-Oleron",
  "url": "http://www.echecs.asso.fr/FicheClub.aspx?Ref=1410",
  "address": "3 rue du Vieux Puits la Chainade 17320 MARENNES",
  "email": "o-roumilhac@sfr.fr",
  "website": "https://www.echecsmarennes.com/",
  "coordinates": [
    45.8331263,
    -1.1257271
  ]
},
{
  "_id": {
    "$oid": "690586c9e06ce80de6cd72bd"
  },
  "name": "Echiquier Surgerien",
  "url": "http://www.echecs.asso.fr/FicheClub.aspx?Ref=2193",
  "address": "Chez Mme Ljutovac 6 Chemin des Longees 17700 VOUHE",
  "email": "echiquiersurgerien17@gmail.com",
  "website": "https://echiquiersurgerien.wixsite.com/leclub",
  "coordinates": [
    46.1446668,
    -0.7981459999999999
  ]
},
{
  "_id": {
    "$oid": "690586c9e06ce80de6cd72bf"
  },
  "name": "Club d'Echecs de Bourges",
  "url": "http://www.echecs.asso.fr/FicheClub.aspx?Ref=441",
  "address": "Club d'Echecs de Bourges maison des Associations 28 rue Gambon 18000 BOURGES",
  "email": "clubechecsbourges@gmail.com",
  "website": "https://www.club-echecs-bourges.fr/",
  "coordinates": [
    47.0866694,
    2.3910992
  ]
},
{
  "_id": {
    "$oid": "690586c9e06ce80de6cd72c5"
  },
  "name": "Academie d'Echecs Philidor",
  "url": "http://www.echecs.asso.fr/FicheClub.aspx?Ref=2636",
  "address": "84 bd de l'Europe 21800 QUETIGNY",
  "email": "yannlh@philidor.fr",
  "website": "http://www.academie-echecs-philidor.fr/",
  "coordinates": [
    47.3185937,
    5.1012641
  ]
},
{
  "_id": {
    "$oid": "690586c9e06ce80de6cd72c6"
  },
  "name": "Club Universitaire Bourgogne Echecs - CUBE",
  "url": "http://www.echecs.asso.fr/FicheClub.aspx?Ref=2706",
  "address": "Maison de l'Etudiant Esplanade Erasme 21000 DIJON",
  "email": "cubechec21@gmail.com",
  "website": "https://sites.google.com/view/dijon-cube/",
  "coordinates": [
    47.3131265,
    5.066550299999999
  ]
},
{
  "_id": {
    "$oid": "690586c9e06ce80de6cd72cc"
  },
  "name": "L'Echiquier des Templiers",
  "url": "http://www.echecs.asso.fr/FicheClub.aspx?Ref=2991",
  "address": "19 rue de la Forge 22550 PLEBOULLE",
  "email": "echiquierdestempliers@gmail.com",
  "website": "https://www.helloasso.com/associations/l-echiquier-des-templiers",
  "coordinates": [
    48.59144999999999,
    -2.353703
  ]
},
{
  "_id": {
    "$oid": "690586c9e06ce80de6cd72cd"
  },
  "name": "Echiquier de Plouaret/Vieux Marche/Tregrom",
  "url": "http://www.echecs.asso.fr/FicheClub.aspx?Ref=2422",
  "address": "Chez Mr Primault Loic kernevez 22420 Plouaret 22420 PLOUARET",
  "email": "loicprimault22@gmail.com",
  "website": "",
  "coordinates": [
    48.651782,
    -3.470833
  ]
},
{
  "_id": {
    "$oid": "690586c9e06ce80de6cd72d0"
  },
  "name": "Echiquier Briochin",
  "url": "http://www.echecs.asso.fr/FicheClub.aspx?Ref=272",
  "address": "4 rue Felix le Dantec Espace Curie 22000 ST BRIEUC",
  "email": "echiquier.briochin@gmail.com",
  "website": "http://echiquierbriochin.fr",
  "coordinates": [
    48.5067233,
    -2.752976
  ]
},
{
  "_id": {
    "$oid": "690586c9e06ce80de6cd72d4"
  },
  "name": "Aux Tours de Domme",
  "url": "http://www.echecs.asso.fr/FicheClub.aspx?Ref=3435",
  "address": "648 Chemin de la Burague 24250 DOMME",
  "email": "24atdd@gmail.com",
  "website": "",
  "coordinates": [
    44.79202,
    1.217554
  ]
},
{
  "_id": {
    "$oid": "690586c9e06ce80de6cd72d5"
  },
  "name": "Echiquier Club Marsacois",
  "url": "http://www.echecs.asso.fr/FicheClub.aspx?Ref=3361",
  "address": "4 impasse des Courtes 24430 MARSAC SUR L ISLE",
  "email": "dangregor@laposte.net",
  "website": "",
  "coordinates": [
    45.174407,
    0.659785
  ]
},
{
  "_id": {
    "$oid": "690586c9e06ce80de6cd72d6"
  },
  "name": "Perigord Echecs",
  "url": "http://www.echecs.asso.fr/FicheClub.aspx?Ref=3374",
  "address": "Maison de Quartier St Martin 14 rue Leon Dessales 24000 PERIGUEUX",
  "email": "perigord.echecs24000@gmail.com",
  "website": "",
  "coordinates": [
    45.1879523,
    0.7124195999999999
  ]
},
{
  "_id": {
    "$oid": "690586c9e06ce80de6cd72d9"
  },
  "name": "Echiquier Bisontin",
  "url": "http://www.echecs.asso.fr/FicheClub.aspx?Ref=3321",
  "address": "Maison de Quartier N. Mandela 13 Av de l'Ile de France 25000 BESANCON",
  "email": "contact@echiquierbisontin.fr",
  "website": "https://echiquierbisontin.fr/",
  "coordinates": [
    47.2207984,
    5.9673504
  ]
},
{
  "_id": {
    "$oid": "690586c9e06ce80de6cd72e0"
  },
  "name": "Valence Echecs",
  "url": "http://www.echecs.asso.fr/FicheClub.aspx?Ref=1900",
  "address": "17 rue Louis Gallet 26000 VALENCE",
  "email": "valence.echecs.26@gmail.com",
  "website": "https://valence-echecs.fr",
  "coordinates": [
    44.9317194,
    4.893428699999999
  ]
},
{
  "_id": {
    "$oid": "690586c9e06ce80de6cd72e2"
  },
  "name": "Echecs Le Fresne-Conches Tour du Pays d'Ouche",
  "url": "http://www.echecs.asso.fr/FicheClub.aspx?Ref=2309",
  "address": "Mairie 27190 CONCHES EN OUCHE",
  "email": "efctpo@gmail.com",
  "website": "",
  "coordinates": [
    48.9589253,
    0.9391111999999998
  ]
},
{
  "_id": {
    "$oid": "690586c9e06ce80de6cd72e6"
  },